City ID,City,Cloudiness,Country,Date,Humidity,Lat,Lng,Max Temp,Wind Speed
0,Albany,94,US,1659388843,49,42.6001,-73.9662,86.58,5.39
1,Jiayuguan City,100,CN,1659388869,63,39.8167,98.3,65.35,7.65
2,Vaini,40,TO,1659388869,89,-21.2,-175.2,78.96,0.0
3,Alugan,100,PH,1659388870,91,12.2188,125.4808,76.75,3.76
4,Port Pirie,89,AU,1659388870,55,-33.1833,138.0167,48.9,10.18
5,Longyearbyen,75,SJ,1659388870,71,78.2186,15.6401,53.44,4.61
6,Chiang Kham,99,TH,1659388871,96,19.5233,100.3,72.81,2.33
7,Kuusankoski,0,FI,1659388871,85,60.907,26.6244,61.32,5.75
8,Richards Bay,24,ZA,1659388871,76,-28.783,32.0377,59.7,4.29
9,Barrow,20,US,1659388872,68,71.2906,-156.7887,42.71,12.97
10,Pangnirtung,40,CA,1659388872,76,66.1451,-65.7125,53.6,4.61
11,Najrān,100,SA,1659388872,67,17.4924,44.1277,73.13,14.32
12,Cidreira,31,BR,1659388873,82,-30.1811,-50.2056,59.67,1.79
13,Severo-Kuril'sk,2,RU,1659388873,81,50.6789,156.125,54.73,5.53
14,Provideniya,75,RU,1659388873,87,64.3833,-173.3,44.71,6.71
15,Rikitea,72,PF,1659388666,73,-23.1203,-134.9692,72.95,24.94
16,Butaritari,91,KI,1659388874,79,3.0707,172.7902,81.37,15.52
17,Esperance,72,AU,1659388874,68,-33.8667,121.9,54.84,30.56
18,Hithadhoo,99,MV,1659388874,73,-0.6,73.0833,79.93,13.96
19,Ushuaia,20,AR,1659388827,57,-54.8,-68.3,47.86,9.22
20,Beyneu,35,KZ,1659388875,41,45.3167,55.2,81.84,12.03
21,Kotli Loharan,0,PK,1659388875,88,32.5883,74.4932,84.09,0.0
22,Aasiaat,89,GL,1659388876,87,68.7098,-52.8699,41.18,7.81
23,Zhigansk,84,RU,1659388876,78,66.7697,123.3711,49.32,20.58
24,Bathsheba,20,BB,1659388876,86,13.2167,-59.5167,84.81,23.02
25,Mount Gambier,93,AU,1659388877,96,-37.8333,140.7667,45.0,8.59
26,Mataura,98,NZ,1659388877,95,-46.1927,168.8643,44.47,7.61
27,Puerto Ayora,78,EC,1659388733,96,-0.7393,-90.3518,82.36,8.01
28,Bluff,86,NZ,1659388877,89,-46.6,168.3333,44.8,15.79
29,Dikson,100,RU,1659388878,90,73.5069,80.5464,40.96,9.53
30,Mahébourg,75,MU,1659388878,94,-20.4081,57.7,66.49,3.44
31,Kapaa,0,US,1659388878,66,22.0752,-159.319,84.52,17.27
32,Ponta do Sol,3,PT,1659388879,81,32.6667,-17.1,75.0,4.92
33,Kouroussa,100,GN,1659388879,93,10.65,-9.8833,72.52,2.19
34,Coahuayana Viejo,69,MX,1659388879,60,18.7333,-103.6833,91.06,6.4
35,Belomorsk,79,RU,1659388880,90,64.5232,34.7668,58.08,5.59
36,Hermanus,0,ZA,1659388880,80,-34.4187,19.2345,47.8,9.53
37,Tuktoyaktuk,75,CA,1659388881,87,69.4541,-133.0374,53.6,12.66
38,Chimbote,14,PE,1659388881,79,-9.0853,-78.5783,65.41,10.98
39,Harper,97,LR,1659388881,74,4.375,-7.7169,75.69,9.48
40,Bay City,75,US,1659388680,72,43.5945,-83.8889,82.62,20.71
41,Córdoba,0,AR,1659388882,26,-31.4135,-64.1811,71.76,16.11
42,Cape Town,0,ZA,1659388882,75,-33.9258,18.4232,58.37,6.91
43,Port Alfred,47,ZA,1659388882,70,-33.5906,26.891,56.1,9.24
44,Champerico,53,GT,1659388883,73,14.3,-91.9167,90.14,7.65
45,Wakkanai,100,JP,1659388883,96,45.4094,141.6739,63.9,14.61
46,Jyvaskyla,0,FI,1659388883,100,62.2415,25.7209,59.13,1.14
47,Hobart,20,AU,1659388884,82,-42.8794,147.3294,44.46,5.75
48,Nome,40,US,1659388600,49,64.5011,-165.4064,68.16,4.61
49,Suntar,74,RU,1659388884,98,62.1444,117.6319,60.31,6.89
50,Hobyo,0,SO,1659388884,82,5.3505,48.5268,75.6,24.56
51,Cap Malheureux,100,MU,1659388885,89,-19.9842,57.6142,66.47,1.99
52,East London,51,ZA,1659388885,68,-33.0153,27.9116,56.37,8.21
53,São João da Barra,0,BR,1659388885,85,-21.6403,-41.0511,73.49,13.27
54,Czarnków,94,PL,1659388886,74,52.9021,16.5641,63.77,9.1
55,Saint Paul Harbor,40,US,1659388886,48,57.79,-152.4072,63.91,19.57
56,Shakawe,17,BW,1659388886,24,-18.3667,21.85,63.07,9.17
57,Busselton,85,AU,1659388887,75,-33.65,115.3333,52.38,32.44
58,Salina Cruz,22,MX,1659388887,48,16.1667,-95.2,92.3,21.27
59,Atuona,32,PF,1659388887,69,-9.8,-139.0333,78.08,16.64
60,Nantucket,100,US,1659388694,88,41.2835,-70.0995,71.71,9.22
61,Salinópolis,72,BR,1659388888,80,-0.6136,-47.3561,79.97,11.65
62,Bredasdorp,0,ZA,1659388888,85,-34.5322,20.0403,45.36,1.25
63,Saskylakh,100,RU,1659388888,77,71.9167,114.0833,41.22,11.52
64,Kaitangata,70,NZ,1659388889,81,-46.2817,169.8464,44.44,5.14
65,Punta Arenas,75,CL,1659388659,61,-53.15,-70.9167,46.51,19.57
66,Olafsvik,33,IS,1659388889,73,64.8945,-23.7142,48.78,14.29
67,Ballina,20,AU,1659388774,98,-28.8667,153.5667,55.02,6.64
68,Hong Kong,97,HK,1659388802,79,22.2855,114.1577,87.33,7.16
69,Jamestown,100,US,1659388864,56,42.097,-79.2353,80.19,14.97
70,Leningradskiy,48,RU,1659388890,65,69.3833,178.4167,51.84,6.2
71,Shahr-e Bābak,0,IR,1659388890,52,30.1165,55.1186,75.72,1.36
72,Bambous Virieux,75,MU,1659388891,94,-20.3428,57.7575,66.45,3.44
73,Srednekolymsk,100,RU,1659388891,69,67.45,153.6833,68.47,6.93
74,Camaná,28,PE,1659388891,72,-16.6228,-72.7111,62.33,6.78
75,Río Gallegos,0,AR,1659388892,71,-51.6226,-69.2181,46.45,10.36
76,Vynohradove,45,UA,1659388892,83,46.3696,32.9398,68.61,3.98
77,Grindavik,40,IS,1659388892,71,63.8424,-22.4338,50.47,20.71
78,Marawi,65,PH,1659388893,94,7.9986,124.2928,67.23,2.33
79,Shabrovskiy,75,RU,1659388893,82,56.636,60.5807,61.41,8.95
80,Port Elizabeth,19,ZA,1659388893,93,-33.918,25.5701,39.49,3.44
81,Bitung,66,ID,1659388894,80,1.4451,125.1824,76.05,3.98
82,Yellowknife,75,CA,1659388644,39,62.456,-114.3525,66.72,9.22
83,Bābra,99,IN,1659388894,80,21.85,71.3,79.11,10.8
84,Tando Jam,11,PK,1659388894,77,25.4272,68.5362,83.93,17.72
85,Cabo San Lucas,75,MX,1659388718,51,22.8909,-109.9124,89.91,13.8
86,Geraldton,75,AU,1659388895,72,-28.7667,114.6,57.61,24.16
87,Āsbe Teferī,97,ET,1659388895,86,9.0833,40.8667,61.59,6.76
88,Hilo,100,US,1659388896,75,19.7297,-155.09,85.28,10.36
89,West Point,40,US,1659388896,59,33.6076,-88.6503,93.49,3.44
90,Airai,95,TL,1659388896,89,-8.9266,125.4092,54.41,2.57
91,Makakilo City,75,US,1659388897,54,21.3469,-158.0858,82.72,20.71
92,Hamilton,75,US,1659388778,68,39.1834,-84.5333,85.95,11.5
93,Lebu,5,CL,1659388897,77,-37.6167,-73.65,49.26,13.13
94,Emba,95,KZ,1659388898,63,48.8264,58.1442,69.39,7.65
95,Hyères,0,FR,1659388898,67,43.1167,6.1167,79.45,8.05
96,Poya,49,NC,1659388898,86,-21.35,165.15,72.19,5.12
97,Sabha,0,LY,1659388898,18,27.0377,14.4283,87.67,8.48
98,Port Hedland,75,AU,1659388899,83,-20.3167,118.5667,73.45,9.22
99,Rabo de Peixe,75,PT,1659388899,78,37.8,-25.5833,71.11,3.44
100,Avarua,20,CK,1659388899,65,-21.2078,-159.775,78.85,17.27
101,Zarechnyy,100,RU,1659388900,78,53.2036,45.1923,60.94,5.23
102,Yumen,100,CN,1659388900,47,40.2833,97.2,72.34,10.85
103,Bethel,100,US,1659388901,77,41.3712,-73.414,79.65,8.05
104,Saint-Philippe,2,RE,1659388901,77,-21.3585,55.7679,65.79,4.47
105,New Norfolk,41,AU,1659388901,83,-42.7826,147.0587,44.1,3.0
106,Bonthe,100,SL,1659388901,84,7.5264,-12.505,76.62,11.68
107,Kaohsiung City,75,TW,1659388796,88,22.6163,120.3133,82.04,2.3
108,Iskateley,100,RU,1659388902,96,67.6803,53.1512,61.23,5.64
109,Thompson,75,CA,1659388840,37,55.7435,-97.8558,68.16,9.22
110,George Town,40,MY,1659388665,93,5.4112,100.3354,80.89,2.3
111,Arman',100,RU,1659388902,93,59.7,150.1667,57.02,6.29
112,Kalabo,0,ZM,1659388903,27,-14.97,22.6814,63.27,5.28
113,Souillac,75,MU,1659388903,94,-20.5167,57.5167,66.58,3.44
114,Ribeira Grande,17,PT,1659388904,73,38.5167,-28.7,75.22,9.89
115,Wangou,0,CN,1659388904,97,42.0623,126.9127,67.21,1.5
116,Rawlins,0,US,1659388904,13,41.7911,-107.2387,89.35,11.5
117,San-Pédro,100,CI,1659388905,76,4.7485,-6.6363,74.82,8.14
118,Henties Bay,0,NA,1659388905,86,-22.116,14.2845,52.95,2.35
119,Qaanaaq,21,GL,1659388905,58,77.484,-69.3632,48.29,1.54
120,Hasaki,100,JP,1659388906,84,35.7333,140.8333,81.28,5.26
121,Smithers,40,CA,1659388906,43,54.7804,-127.1743,70.12,12.66
122,Atar,58,MR,1659388907,34,20.5169,-13.0499,97.0,11.05
123,Chanika,42,TZ,1659388907,95,-5.4167,38.0167,62.28,2.1
124,Laguna,0,US,1659388750,58,38.421,-121.4238,88.97,6.91
125,Chokurdakh,94,RU,1659388907,77,70.6333,147.9167,50.41,10.25
126,Poum,30,NC,1659388908,83,-20.2333,164.0167,74.19,13.69
127,Cooma,80,AU,1659388908,91,-36.2333,149.1333,35.19,4.83
128,Vestmannaeyjar,4,IS,1659388908,69,63.4427,-20.2734,50.4,22.7
129,Saint George,0,US,1659388616,36,37.1041,-113.5841,95.25,10.36
130,Rincon,75,US,1659388909,62,32.296,-81.2354,92.95,5.75
131,Sechura,24,PE,1659388909,61,-5.5569,-80.8222,74.17,15.32
132,Nhulunbuy,75,AU,1659388910,94,-12.2333,136.7667,74.01,5.75
133,Qiqihar,93,CN,1659388910,74,47.3408,123.9672,72.82,8.37
134,Galveston,0,US,1659388781,63,29.3669,-94.9669,96.1,17.27
135,Port Macquarie,0,AU,1659388911,84,-31.4333,152.9167,45.9,5.03
136,Danilovka,14,RU,1659388911,61,50.3557,44.1168,68.72,8.95
137,Mopti,20,ML,1659388911,88,14.6667,-4.0,77.04,9.22
138,Kidal,8,ML,1659388912,25,18.4411,1.4078,96.42,12.28
139,La Asuncion,81,VE,1659388912,75,11.0333,-63.8628,81.9,12.88
140,San Patricio,68,US,1659388912,41,28.017,-97.5169,96.19,17.92
141,Ontario,75,US,1659388913,35,34.0633,-117.6509,99.01,17.27
142,Dhidhdhoo,100,MV,1659388913,78,6.8833,73.1,79.45,24.14
143,Ambanja,40,MG,1659388913,90,-13.6833,48.45,68.41,3.89
144,Jalu,0,LY,1659388914,46,29.0331,21.5482,84.43,13.58
145,Laas,78,IT,1659388914,77,46.6166,10.7002,68.88,3.09
146,Kloulklubed,100,PW,1659388914,76,7.0419,134.2556,73.9,10.4
147,Pevek,61,RU,1659388915,68,69.7008,170.3133,48.78,22.41
148,Praia da Vitória,20,PT,1659388915,83,38.7333,-27.0667,75.76,4.21
149,Pisco,0,PE,1659388915,72,-13.7,-76.2167,64.45,9.22
150,Cuiluan,99,CN,1659388916,95,47.72,128.648,67.71,2.33
151,Maralal,99,KE,1659388916,81,1.0968,36.698,59.88,3.74
152,Marzuq,12,YE,1659388916,60,14.4,46.4667,77.81,4.27
153,Lüderitz,0,NA,1659388917,77,-26.6481,15.1594,53.58,5.21
154,Cabra,0,ES,1659388917,43,37.4725,-4.4421,82.56,6.67
155,Boralday,75,KZ,1659388917,52,43.3578,76.8594,67.86,6.71
156,Kavaratti,100,IN,1659388918,86,10.5669,72.642,77.67,26.84
157,Conceição das Alagoas,53,BR,1659388918,27,-19.9147,-48.3883,83.98,7.99
158,Angoche,16,MZ,1659388918,85,-16.2325,39.9086,72.07,7.45
159,Mar del Plata,0,AR,1659388814,90,-38.0023,-57.5575,56.08,5.75
160,Semporna,100,MY,1659388919,83,4.4818,118.6112,78.91,2.08
161,Ulladulla,1,AU,1659388919,76,-35.35,150.4667,46.08,6.96
162,Myitkyina,95,MM,1659388920,99,25.3833,97.4,74.52,1.19
163,Klaksvík,44,FO,1659388920,87,62.2266,-6.589,50.92,13.44
164,Sukumo,99,JP,1659388920,96,32.9333,132.7333,77.94,3.02
165,Deputatsky,100,RU,1659388921,92,69.3,139.9,49.77,2.73
166,Nyimba,0,ZM,1659388921,44,-14.5566,30.8149,68.77,13.47
167,Taoudenni,58,ML,1659388871,7,22.6783,-3.9836,104.45,9.78
168,Khatanga,100,RU,1659388922,76,71.9667,102.5,45.05,7.31
169,Charters Towers,64,AU,1659388922,97,-20.1,146.2667,59.54,6.24
170,Tocopilla,8,CL,1659388913,70,-22.092,-70.1979,63.27,7.16
171,Pacific Grove,0,US,1659388922,76,36.6177,-121.9166,82.08,8.01
172,Tūkrah,0,LY,1659388923,74,32.5341,20.5791,79.95,9.33
173,Binzhou,0,CN,1659388923,83,37.3667,118.0167,75.83,5.03
174,Nikolskoye,100,RU,1659388923,98,59.7035,30.7861,61.88,11.36
175,Carnarvon,65,AU,1659388924,61,-24.8667,113.6333,66.52,21.56
176,Hachinohe,100,JP,1659388924,93,40.5,141.5,74.14,8.75
177,Alyangula,12,AU,1659388924,88,-13.8483,136.4192,71.02,7.49
178,Baláo,70,EC,1659388925,69,-2.9167,-79.8167,77.95,5.17
179,Dawson Creek,20,CA,1659388925,57,55.7666,-120.2362,74.84,9.22
180,Faanui,39,PF,1659388926,67,-16.4833,-151.75,78.35,24.54
181,Launceston,52,AU,1659388926,87,-41.45,147.1667,47.8,13.8
182,Dunedin,83,NZ,1659388926,61,-45.8742,170.5036,53.92,13.11
183,Upernavik,100,GL,1659388927,62,72.7868,-56.1549,46.4,2.95
184,Lavrentiya,86,RU,1659388927,71,65.5833,-171.0,50.49,2.77
185,Nanortalik,100,GL,1659388927,80,60.1432,-45.2371,46.6,1.19
186,Camocim,48,BR,1659388928,70,-2.9022,-40.8411,81.03,17.76
187,Lubango,95,AO,1659388928,39,-14.9172,13.4925,51.04,4.0
188,Lázaro Cárdenas,21,MX,1659388928,67,17.9583,-102.2,87.04,12.06
189,Bengkulu,81,ID,1659388929,92,-3.8004,102.2655,74.84,4.45
190,Narsaq,100,GL,1659388929,72,60.9167,-46.05,57.42,8.37
191,Price,75,US,1659388929,34,39.5994,-110.8107,85.12,11.5
192,Hibbing,100,US,1659388930,60,47.4272,-92.9377,81.39,3.44
193,Tombouctou,14,ML,1659388930,15,20.0,-3.0,103.15,7.56
194,Salalah,100,OM,1659388843,94,17.0151,54.0924,77.09,6.91
195,Flinders,0,AU,1659388931,63,-34.5833,150.8552,52.18,7.0
196,Banjar,100,ID,1659388931,89,-8.19,114.9675,75.47,1.79
197,Tual,99,ID,1659388931,80,-5.6667,132.75,79.39,18.63
198,Tunceli,0,TR,1659388932,26,39.1083,39.5471,77.32,6.15
199,Bairiki Village,40,KI,1659388932,70,1.3292,172.9752,84.2,17.27
200,Castro,14,BR,1659388932,75,-24.7911,-50.0119,59.11,2.48
201,Tasiilaq,19,GL,1659388933,60,65.6145,-37.6368,44.76,1.79
202,Katghora,88,IN,1659388933,80,22.5,82.55,78.69,3.49
203,Katsuura,100,JP,1659388933,89,35.1333,140.3,80.19,10.13
204,Cherskiy,95,RU,1659388934,41,68.75,161.3,67.14,22.77
205,Ixtapa,40,MX,1659388934,62,20.7,-105.2,92.23,9.22
206,Nigrán,0,ES,1659388934,60,42.1415,-8.8066,83.17,2.3
207,Clyde River,100,CA,1659388935,87,70.4692,-68.5914,41.23,9.22
208,Mount Isa,32,AU,1659388935,58,-20.7333,139.5,51.57,0.0
209,Tonstad,29,NO,1659388935,83,58.6626,6.7169,48.06,3.67
210,Kibala,40,TD,1659388935,100,9.1104,18.3463,73.35,4.61
211,Yenagoa,67,NG,1659388936,88,4.9247,6.2642,73.49,4.34
212,Palmer,75,US,1659388936,68,42.1584,-72.3287,81.52,9.22
213,Petropavlovsk-Kamchatskiy,20,RU,1659388937,88,53.0452,158.6483,55.99,4.47
214,Alofi,40,NU,1659388937,73,-19.0595,-169.9187,78.69,8.05
215,Khorramshahr,5,IR,1659388937,70,30.4397,48.1664,93.16,4.61
216,Kjøllefjord,0,NO,1659388938,94,70.9457,27.3465,53.42,1.14
217,College,75,US,1659388938,58,64.8569,-147.8028,71.58,6.91
218,Wanaka,98,NZ,1659388938,99,-44.7,169.15,40.05,8.43
219,Okha,100,RU,1659388939,87,53.5739,142.9478,57.45,16.78
220,Choma,0,ZM,1659388939,42,-16.8065,26.9531,58.86,7.81
221,San Joaquin,0,US,1659388939,29,37.9333,-121.3011,89.53,8.05
222,Vila Franca do Campo,89,PT,1659388940,79,37.7167,-25.4333,72.01,2.37
223,Merauke,58,ID,1659388940,92,-8.4667,140.3333,76.15,11.12
224,Montes Claros,0,BR,1659388940,34,-16.735,-43.8617,80.38,11.5
225,Cabadiangan,99,PH,1659388941,88,9.7531,122.4739,76.23,3.83
226,Waddān,0,LY,1659388941,43,29.1614,16.139,85.75,14.61
227,Hualmay,53,PE,1659388941,73,-11.0964,-77.6139,65.5,11.01
228,Huanren,2,CN,1659388942,98,41.2647,125.3667,72.27,0.67
229,Caxito,30,AO,1659388942,93,-8.5785,13.6643,65.08,3.51
230,Chui,52,UY,1659388942,94,-33.6971,-53.4616,53.64,5.5
231,Arraial do Cabo,0,BR,1659388943,83,-22.9661,-42.0278,71.46,11.5
232,Havelock,40,US,1659388943,75,34.8791,-76.9013,93.97,10.36
233,Tutóia,98,BR,1659388943,80,-2.7619,-42.2744,79.45,11.39
234,Sinnamary,42,GF,1659388944,78,5.3833,-52.95,81.48,6.17
235,Urdoma,100,RU,1659388944,73,61.7533,48.5442,61.54,3.2
236,Opuwo,2,NA,1659388944,33,-18.0607,13.84,45.25,6.64
237,Tiznit Province,47,MA,1659388945,29,29.5833,-9.5,89.13,1.3
238,Dalmatovo,97,RU,1659388945,79,56.26,62.9362,58.78,7.99
239,Cedar City,0,US,1659388945,39,37.6775,-113.0619,83.37,16.11
240,Okahandja,0,NA,1659388946,36,-21.9833,16.9167,43.61,8.05
241,Udachny,100,RU,1659388946,79,66.4167,112.4,49.69,15.7
242,Mikhaylovka,8,RU,1659388946,60,50.06,43.2379,72.79,10.45
243,Fortuna,0,US,1659388947,70,40.5982,-124.1573,72.93,11.5
244,Luanda,20,AO,1659388947,88,-8.8368,13.2343,68.0,10.36
245,Kumul,9,CN,1659388947,30,42.8,93.45,80.87,7.07
246,Hofn,10,IS,1659388948,73,64.2539,-15.2082,49.37,5.03
247,Bodden Town,20,KY,1659388948,69,19.2833,-81.25,91.4,12.66
248,Paamiut,100,GL,1659388948,84,61.994,-49.6678,45.07,6.82
249,Assiniboia,17,CA,1659388949,47,49.6334,-105.9845,80.42,9.22
250,Bekovo,54,RU,1659388949,84,52.4663,43.712,61.95,8.46
251,Winkler,100,CA,1659388949,88,49.1817,-97.941,73.4,3.44
252,Mīnāb,100,IR,1659388950,55,27.1467,57.0801,93.34,1.97
253,Ancud,98,CL,1659388679,68,-41.8697,-73.8203,46.22,3.31
254,‘Āhuimanu,0,US,1659388950,63,21.4447,-157.8378,83.91,20.71
255,Sitka,75,US,1659388950,72,57.0531,-135.33,62.49,8.05
256,Aksarka,9,RU,1659388951,76,66.5606,67.7975,51.33,3.71
257,Gairo,0,IT,1659388951,59,39.8497,9.5047,71.17,4.99
258,Ongandjera,0,NA,1659388951,28,-17.8833,15.0667,46.11,10.13
259,Ostrovnoy,100,RU,1659388952,92,68.0531,39.5131,54.61,9.28
260,Haines Junction,45,CA,1659388952,52,60.7522,-137.5108,66.15,9.22
261,Natal,0,BR,1659388897,78,-5.795,-35.2094,79.02,11.5
262,Berlevåg,100,NO,1659388953,100,70.8578,29.0864,53.6,3.44
263,Tianpeng,84,CN,1659388953,88,30.9866,103.9393,75.63,2.86
264,Port Hardy,75,CA,1659388954,68,50.6996,-127.4199,64.58,14.97
265,Meulaboh,99,ID,1659388954,86,4.1363,96.1285,77.14,3.69
266,La Roche-sur-Yon,0,FR,1659388954,73,46.6667,-1.4333,68.27,8.05
267,Beringovskiy,28,RU,1659388955,65,63.05,179.3167,54.59,2.1
268,Vao,94,NC,1659388955,86,-22.6667,167.4833,71.74,20.89
269,Sakakah,22,SA,1659388955,14,29.9697,40.2064,92.77,8.66
270,Knarvik,6,NO,1659388956,87,60.5422,5.2883,54.16,4.45
271,Koslan,10,RU,1659388956,89,63.4564,48.8989,56.34,2.62
272,Villa Carlos Paz,96,AR,1659388956,24,-31.4241,-64.4978,68.4,13.0
273,Sagarejo,47,GE,1659388957,58,41.734,45.3315,77.43,4.56
274,Margate,97,GB,1659388784,91,51.3813,1.3862,66.31,3.0
275,Kavieng,100,PG,1659388957,82,-2.5744,150.7967,80.51,14.92
276,Zhezkazgan,28,KZ,1659388958,54,47.8043,67.7144,69.8,6.04
277,Norman Wells,20,CA,1659388958,40,65.282,-126.8329,73.44,10.36
278,Aklavik,53,CA,1659388958,48,68.2191,-135.0107,64.11,3.15
279,Weatherford,12,US,1659388959,30,32.7593,-97.7972,102.67,3.0
280,Codrington,58,AU,1659388959,90,-38.2667,141.9667,47.95,13.76
281,Mbuji-Mayi,8,CD,1659388959,59,-6.15,23.6,75.92,3.49
282,Moose Factory,100,CA,1659388960,88,51.2585,-80.6094,57.2,10.36
283,Comodoro Rivadavia,0,AR,1659388960,46,-45.8667,-67.5,46.26,3.44
284,Aden,8,YE,1659388960,65,12.7794,45.0367,87.75,16.4
285,Puksoozero,98,RU,1659388961,86,62.5903,40.6066,53.6,5.12
286,Ugoofaaru,100,MV,1659388877,74,5.6667,73.0,80.98,21.5
287,Dunkirk,91,FR,1659388961,87,51.05,2.3667,68.25,4.5
288,Kruisfontein,11,ZA,1659388961,75,-34.0033,24.7314,46.81,4.76
289,Soyo,27,AO,1659388962,86,-6.1349,12.3689,69.71,11.59
290,Saldanha,0,ZA,1659388962,75,-33.0117,17.9442,44.65,11.25
291,Fortuna Foothills,20,US,1659388962,32,32.6578,-114.4119,105.22,8.99
292,La Libertad,100,EC,1659388963,83,-2.2333,-80.9,71.26,11.5
293,Vaitape,45,PF,1659388963,67,-16.5167,-151.75,78.39,24.43
294,La Plata,57,AR,1659388670,68,-34.9215,-57.9545,61.02,5.79
295,Ayacucho,20,PE,1659388963,23,-13.1583,-74.2239,75.06,1.14
296,Mackay,49,AU,1659388964,92,-21.15,149.2,62.69,9.73
297,Walvis Bay,0,NA,1659388964,82,-22.9575,14.5053,53.1,0.92
298,Mahabalipuram,86,IN,1659388964,72,12.6264,80.1722,83.05,5.41
299,Cockburn Town,0,TC,1659388965,78,21.4612,-71.1419,82.65,13.27
300,Gimli,100,CA,1659388965,57,50.6336,-96.9907,70.07,8.93
301,Zabid,100,YE,1659388965,42,14.1951,43.3152,92.86,7.52
302,Nuuk,75,GL,1659388966,76,64.1835,-51.7216,48.81,13.8
303,Necochea,10,AR,1659388966,75,-38.5473,-58.7368,55.94,7.27
304,Lagoa,1,PT,1659388966,72,39.05,-27.9833,74.37,10.04
305,Tula,100,RU,1659388832,62,54.2044,37.6111,62.6,6.22
306,Phan Thiet,100,VN,1659388674,86,10.9333,108.1,78.22,3.85
307,Tamandaré,1,BR,1659388967,77,-8.7597,-35.1047,74.35,10.07
308,Buala,43,SB,1659388967,78,-8.145,159.5921,80.89,8.52
309,Gambiran,85,ID,1659388968,86,-6.7988,111.4951,73.45,4.03
310,Quatre Cocos,97,MU,1659388968,76,-20.2078,57.7625,66.31,12.86
311,Belaya Gora,100,RU,1659388968,88,68.5333,146.4167,55.02,10.65
312,Wajima,98,JP,1659388969,80,37.4,136.9,82.2,11.14
313,Muros,1,ES,1659388969,77,42.7762,-9.0603,77.68,9.44
314,Aquiraz,18,BR,1659388969,81,-3.9014,-38.3911,80.69,11.9
315,Zihuatanejo,20,MX,1659388970,62,17.6333,-101.55,91.49,10.36
316,Bariri,14,BR,1659388970,29,-22.0744,-48.7403,84.45,0.83
317,Sungai Penuh,98,ID,1659388971,99,-2.0833,101.3833,64.44,1.5
318,Tongliao,20,CN,1659388971,92,43.6125,122.2653,74.19,5.93
319,Termez,0,UZ,1659388971,24,37.2242,67.2783,84.29,6.91
320,Nizhniy Kuranakh,81,RU,1659388972,93,58.8353,125.4869,62.11,3.22
321,Cochabamba,15,BO,1659388972,14,-17.3895,-66.1568,76.75,10.36
322,Iqaluit,75,CA,1659388972,81,63.7506,-68.5145,50.7,5.75
323,Chum Phae,53,TH,1659388973,89,16.5443,102.0992,75.69,2.73
324,Itoman,20,JP,1659388855,89,26.1247,127.6694,81.37,6.91
325,Port-Gentil,40,GA,1659388973,83,-0.7193,8.7815,75.16,11.5
326,Hay River,40,CA,1659388973,48,60.8156,-115.7999,66.18,17.27
327,Kotido,100,UG,1659388974,83,2.9806,34.1331,67.33,5.53
328,Los Llanos de Aridane,100,ES,1659388974,91,28.6585,-17.9182,70.12,17.27
329,Vila Velha,0,BR,1659388975,86,-20.3297,-40.2925,75.15,9.22
330,Bowen,16,AU,1659388975,90,-20.0167,148.2333,62.69,6.93
331,Port Lincoln,100,AU,1659388975,46,-34.7333,135.8667,53.6,20.42
332,Kamenka,21,RU,1659388976,68,51.3223,42.7678,62.94,8.1
333,Polson,32,US,1659388976,18,47.6936,-114.1632,96.73,13.0
334,Mogok,100,MM,1659388976,99,22.9167,96.5,66.2,2.64
335,Saint Anthony,0,US,1659388977,39,45.0205,-93.218,86.86,9.22
336,Te Anau,100,NZ,1659388977,90,-45.4167,167.7167,48.29,6.87
337,Maniitsoq,100,GL,1659388690,86,65.4167,-52.9,45.28,10.8
338,Ust'-Kulom,64,RU,1659388977,96,61.6864,53.6902,58.89,1.21
339,Beruwala,100,LK,1659388978,85,6.4788,79.9828,77.54,18.81
340,Sambava,24,MG,1659388978,89,-14.2667,50.1667,67.42,10.16
341,Kalghatgi,100,IN,1659388978,97,15.1833,74.9667,71.49,8.75
342,Lompoc,0,US,1659388979,61,34.6391,-120.4579,83.84,14.97
343,Aksu,100,CN,1659388979,62,41.1231,80.2644,70.43,4.43
344,Victor Harbor,100,AU,1659388979,58,-35.5667,138.6167,53.67,12.71
345,Belyy Yar,0,RU,1659388980,88,53.6039,91.3903,64.29,4.47
346,Fairbanks,75,US,1659388980,56,64.8378,-147.7164,71.6,6.91
347,Abu Samrah,0,SY,1659388980,56,35.3029,37.1841,79.45,8.84
348,Bulgan,90,MN,1659388981,85,48.8125,103.5347,60.21,1.12
349,Torbay,75,CA,1659388981,50,47.6666,-52.7314,79.88,11.5
350,Coquimbo,100,CL,1659388981,87,-29.9533,-71.3436,55.13,8.05
351,Pedernales,22,DO,1659388982,54,18.0384,-71.744,89.8,3.02
352,Matagami,100,CA,1659388982,94,49.7502,-77.6328,64.51,9.22
353,Bamako,20,ML,1659388832,100,12.65,-8.0,72.01,4.61
354,Kudahuvadhoo,90,MV,1659388877,74,2.6708,72.8944,81.46,20.85
355,Bariloche,40,AR,1659388983,49,-41.1456,-71.3082,42.55,13.8
356,Broome,40,US,1659388983,49,42.2506,-75.833,86.45,8.05
357,Rocha,100,UY,1659388983,83,-34.4833,-54.3333,54.7,5.48
358,Mendi,63,PG,1659388984,95,-6.1761,143.6513,50.23,4.23
359,Camargo,5,MX,1659388984,18,27.6667,-105.1667,93.45,9.13
360,Kutum,60,SD,1659388984,68,14.2,24.6667,73.08,2.82
361,Bubaque,100,GW,1659388985,79,11.2833,-15.8333,79.99,17.22
362,Atlantic City,75,US,1659388985,67,39.3643,-74.4229,84.04,8.05
363,Maïné Soroa,98,NE,1659388985,59,13.2114,12.0241,80.44,7.83
364,Buraidah,100,SA,1659388986,27,26.326,43.975,95.45,5.01
365,Dingzhou,0,CN,1659388986,84,38.5131,114.9956,78.91,2.13
366,Fort Nelson,75,CA,1659388986,94,58.8053,-122.7002,60.39,9.22
367,Kyzyl-Suu,55,KG,1659388987,68,42.3414,78.0056,56.52,2.66
368,Takoradze,52,GH,1659388987,81,4.8845,-1.7554,73.54,9.19
369,Lilongwe,45,MW,1659388987,61,-13.9669,33.7873,62.71,6.53
370,Neyshabur,0,IR,1659388988,40,36.2133,58.7958,75.81,2.59
371,Tuatapere,80,NZ,1659388988,86,-46.1333,167.6833,49.68,6.2
372,Paragominas,100,BR,1659388989,96,-2.9667,-47.4833,74.75,3.29
373,Ahipara,100,NZ,1659388989,77,-35.1667,173.1667,52.12,4.63
374,Sur,50,OM,1659388989,62,22.5667,59.5289,88.72,6.82
375,Mildura,2,AU,1659388990,59,-34.2,142.15,43.07,10.58
376,Port-Cartier,26,CA,1659388990,77,50.0334,-66.8654,68.76,7.38
377,Namtsy,100,RU,1659388990,97,62.7161,129.6658,64.67,2.48
378,Artvin Province,10,TR,1659388991,91,41.1667,41.8333,65.77,1.39
379,Tautira,18,PF,1659388991,72,-17.7333,-149.15,77.05,24.72
380,General Cepeda,51,MX,1659388991,45,25.3833,-101.45,78.66,7.31
381,Wanxian,0,CN,1659388992,75,30.8039,108.3897,78.33,1.86
382,São Filipe,57,CV,1659388992,86,14.8961,-24.4956,75.78,9.62
383,Yarega,99,RU,1659388992,95,63.4354,53.5765,58.96,2.21
384,Parabel',0,RU,1659388993,79,58.6978,81.4825,47.82,7.67
385,Kyabé,100,TD,1659388993,93,9.4515,18.9449,72.5,1.68
386,Robe,100,AU,1659388993,82,-37.1833,139.75,50.59,16.78
387,Departamento de Maldonado,3,UY,1659388994,86,-34.6667,-54.9167,56.59,5.37
388,Bull Savanna,68,JM,1659388994,70,17.8868,-77.5902,84.76,14.92
389,Morondava,1,MG,1659388994,50,-20.2833,44.2833,77.65,11.88
390,Krasnoyarskiy,100,RU,1659388995,87,51.965,59.8967,63.3,8.61
391,Baiyin,96,CN,1659388995,57,36.5583,104.2081,71.4,3.06
392,Dwārka,95,IN,1659388995,82,22.2394,68.9678,81.7,17.9
393,La Ronge,75,CA,1659388996,49,55.1001,-105.2842,71.82,9.22
394,Slavyanka,100,RU,1659388996,99,42.8633,131.3847,70.48,4.29
395,Formosa do Rio Preto,8,BR,1659388997,26,-11.0483,-45.1931,83.12,5.19
396,Coihueco,81,CL,1659388997,66,-36.6167,-71.8333,52.54,8.05
397,Vardø,100,NO,1659388997,100,70.3705,31.1107,49.98,3.44
398,Abū Zabad,61,SD,1659388998,77,12.35,29.25,75.22,8.25
399,Mt. Pleasant,0,US,1659388998,69,32.7941,-79.8626,96.31,12.66
400,Bereda,38,ES,1659388998,100,43.2686,-7.5406,68.41,6.42
401,Eureka,97,US,1659388999,72,40.8021,-124.1637,73.2,3.0
402,Ilulissat,40,GL,1659388999,50,69.2167,-51.1,53.62,5.75
403,Shira,99,RU,1659388999,97,54.4911,89.9531,59.18,2.08
404,Mayumba,2,GA,1659389000,90,-3.432,10.6554,70.63,7.16
405,Dārāb,6,IR,1659389000,59,28.7519,54.5444,82.47,1.05
406,Fujin,49,CN,1659389000,93,47.26,132.0322,69.28,4.94
407,Lae,89,PG,1659389001,79,-6.7221,146.9847,74.07,6.26
408,Kapit,100,MY,1659389001,99,2.0167,112.9333,74.08,1.61
409,Uíge,98,AO,1659389001,61,-7.6087,15.0613,66.81,3.47
410,Trairi,26,BR,1659388837,79,-3.2778,-39.2689,78.44,13.42
411,Ferrol,0,ES,1659389002,81,43.4832,-8.2369,72.23,11.79
412,Bonfim,93,BR,1659389002,76,3.0833,-59.95,83.52,4.25
413,Coruripe,1,BR,1659389003,75,-10.1256,-36.1756,72.09,8.9
414,Huntsville,40,US,1659388768,96,34.7304,-86.5861,80.78,5.75
415,Tigil',100,RU,1659389003,80,57.8,158.6667,56.28,10.4
416,Bolpur,100,IN,1659389003,82,23.6667,87.7167,82.18,3.56
417,Uchiza,48,PE,1659389004,49,-8.4592,-76.4633,87.28,1.86
418,Adrar,100,MR,1659389004,29,20.5022,-10.0711,89.51,24.43
419,Ampanihy,30,MG,1659389004,83,-24.7,44.75,64.31,11.97
420,Rio Grande,51,BR,1659389005,91,-32.035,-52.0986,57.31,5.37
421,Ingham,40,US,1659389005,64,42.6,-84.3833,84.16,13.8
422,Talnakh,4,RU,1659389005,75,69.4865,88.3972,45.21,11.68
423,Waipawa,100,NZ,1659389006,75,-41.4122,175.5153,50.72,26.22
424,Fairmont,78,US,1659388906,77,39.4851,-80.1426,85.12,8.61
425,Gilbués,17,BR,1659389006,25,-9.8317,-45.3439,85.24,4.68
426,Verkhnevilyuysk,92,RU,1659389007,97,63.4453,120.3167,61.52,7.49
427,Hargeisa,7,SO,1659389007,61,9.56,44.065,69.93,23.0
428,Pombas,67,CV,1659389007,89,17.1503,-25.0201,74.98,14.83
429,Vangaindrano,45,MG,1659389008,89,-23.35,47.6,66.63,10.51
430,Kwinana,98,AU,1659389008,78,-32.25,115.7667,56.34,15.01
431,Borzya,2,RU,1659389008,68,50.3833,116.5167,62.82,2.68
432,Oktyabr'skiy,29,RU,1659389009,96,54.4815,53.471,60.26,5.5
433,Seoul,100,KR,1659388828,94,37.5683,126.9778,80.04,9.22
434,Kirakira,31,SB,1659389009,80,-10.4544,161.9205,80.85,8.01
435,Dryden,0,CA,1659389010,53,49.7833,-92.7503,71.89,11.5
436,Puerto Colombia,100,CO,1659389010,72,10.9878,-74.9547,84.29,15.23
437,Constitución,96,CL,1659388981,69,-35.3333,-72.4167,53.6,11.45
438,Troitsko-Pechorsk,99,RU,1659389010,71,62.7084,56.1964,56.5,4.16
439,Langsa,100,ID,1659389011,96,4.4683,97.9683,74.86,2.37
440,Grand Gaube,100,MU,1659389011,89,-20.0064,57.6608,66.6,1.99
441,Qiongshan,0,CN,1659389011,100,20.0058,110.3542,76.98,0.0
442,Arrondissement de Mende,10,FR,1659388736,53,44.6667,3.5,59.45,5.37
443,Muncar,86,ID,1659389012,92,-8.4333,114.3333,75.36,2.28
444,Gao,3,ML,1659388952,31,16.6362,1.637,92.91,12.17
445,Fomboni,0,KM,1659389012,76,-12.28,43.7425,75.7,8.5
446,Kampong Chhnang,100,KH,1659389013,93,12.1667,104.55,76.66,0.94
447,Balotra,74,IN,1659389013,77,25.8333,72.2333,84.07,14.58
448,Mariestad,20,SE,1659389013,88,58.7097,13.8237,59.47,9.69
449,Usinsk,13,RU,1659389014,55,65.9939,57.5281,59.34,9.73
450,Sept-Îles,40,CA,1659389014,83,50.2001,-66.3821,69.06,11.5
451,Tiksi,100,RU,1659389014,90,71.6872,128.8694,41.29,0.65
452,Pecos,0,US,1659389015,15,31.4229,-103.4932,102.29,8.05
453,Nouadhibou,75,MR,1659389015,94,20.931,-17.0347,71.58,11.5
454,Ust-Maya,100,RU,1659389015,83,60.4167,134.5333,62.64,10.38
455,Tuy Hoa,96,VN,1659388735,88,13.0833,109.3,77.05,4.79
456,Roebourne,100,AU,1659389016,78,-20.7833,117.1333,74.62,16.15
457,Faya,100,SA,1659389016,86,18.3851,42.4509,61.32,7.67
458,Prince Rupert,75,CA,1659388921,85,54.3161,-130.3201,62.69,17.27
459,Shingū,100,JP,1659389017,86,33.7333,135.9833,77.16,5.57
460,Paraíso,89,CR,1659389017,76,9.8383,-83.8656,73.96,4.63
461,Isangel,92,VU,1659389017,84,-19.55,169.2667,76.84,13.8
462,Oktyabr'skoye,3,RU,1659389018,64,43.0645,44.7417,68.14,6.71
463,Balgazyn,71,RU,1659389018,93,51.0,95.2,54.91,2.66
464,Muskogee,20,US,1659389018,46,35.5834,-95.3336,94.35,10.36
465,Aykhal,100,RU,1659389019,87,66.0,111.5,49.06,17.36
466,Tandaltī,99,SD,1659389019,77,13.0167,31.8667,76.93,11.16
467,Baruun-Urt,59,MN,1659389019,84,46.6806,113.2792,63.43,6.08
468,Antofagasta,27,CL,1659388817,73,-23.65,-70.4,58.28,6.49
469,San Quintín,73,MX,1659389020,60,30.4833,-115.95,77.27,13.62
470,Hambantota,75,LK,1659389020,94,6.1241,81.1185,77.34,11.5
471,Yar-Sale,15,RU,1659389020,78,66.8333,70.8333,49.26,2.1
472,Paso de los Toros,99,UY,1659389021,76,-32.8167,-56.5167,53.6,5.03
473,Husavik,100,IS,1659389021,92,66.0449,-17.3389,42.62,7.09
474,Douglas,0,US,1659388872,49,41.3,-96.167,93.07,8.05
475,Bandarbeyla,38,SO,1659389022,84,9.4942,50.8122,75.69,29.01
476,Guerrero Negro,0,MX,1659389022,43,27.9769,-114.0611,85.5,15.32
477,Vung Tau,100,VN,1659388854,84,10.346,107.0843,80.46,5.48
478,Khanpur,0,PK,1659389022,60,28.6453,70.6567,91.33,11.65
479,Chapais,100,CA,1659389023,49,49.7834,-74.8492,76.78,13.94
480,Cherdyn',100,RU,1659389023,75,60.403,56.4787,55.27,2.86
481,Cap-aux-Meules,75,CA,1659389023,69,47.3821,-61.8597,75.25,8.05
482,Binodegahan,97,PH,1659389024,86,13.0614,123.4579,77.04,1.1
483,Kattivākkam,99,IN,1659389024,85,13.2167,80.3167,83.07,6.71
484,Quang Ngai,97,VN,1659389024,87,15.1167,108.8,75.83,4.47
485,Ngara,77,TZ,1659389025,74,-2.5122,30.6558,61.54,2.53
486,Begunitsy,100,RU,1659389025,99,59.5855,29.3176,58.24,8.43
487,Ubalá,65,CO,1659389025,79,4.7478,-72.5369,79.41,11.54
488,Ambilobe,21,MG,1659389026,86,-13.2,49.05,66.09,3.18
489,Bushehr,0,IR,1659389026,59,28.9684,50.8385,93.29,6.91
490,Lugovoy,7,KZ,1659389026,47,42.9472,72.7644,70.59,6.31
491,Zyryanka,76,RU,1659389027,63,65.75,150.85,70.12,13.69
492,Qaqortoq,100,GL,1659389027,74,60.7167,-46.0333,48.31,10.11
493,Huilong,69,CN,1659389028,87,31.8111,121.655,83.93,5.93
494,Lodja,18,CD,1659389028,88,-3.4833,23.4333,71.28,2.33
495,Honiara,14,SB,1659389028,76,-9.4333,159.95,80.06,5.97
496,Popondetta,20,PG,1659389029,77,-8.7537,148.2534,72.84,3.49
497,Inyonga,34,TZ,1659389029,37,-6.7167,32.0667,70.61,7.16
498,Beba,41,CU,1659389029,72,22.4437,-79.7253,89.87,13.73
499,Svolvær,75,NO,1659389030,94,68.2342,14.5683,57.18,5.75
500,Narasannapeta,100,IN,1659389030,83,18.4167,84.05,81.75,4.63
501,Catabola,100,AO,1659389030,36,-12.15,17.2833,66.29,4.52
502,Jacareacanga,99,BR,1659389031,60,-6.2222,-57.7528,83.16,4.29
503,Nizwá,43,OM,1659389031,59,22.9333,57.5333,88.97,1.7
504,Jacmel,96,HT,1659389031,64,18.2342,-72.5347,89.44,6.26
505,Omboué,100,GA,1659389032,81,-1.5746,9.2618,73.13,7.45
506,Bonavista,99,CA,1659389032,78,48.6499,-53.1147,64.98,10.51
507,Bayir,0,TR,1659389032,42,37.2687,28.2167,82.92,5.53
508,Akdepe,93,TM,1659389033,46,42.0551,59.3788,78.89,10.13
509,Mossamedes,72,AO,1659389033,62,-15.1961,12.1522,59.07,10.98
510,Mafeteng,87,LS,1659389033,55,-29.823,27.2374,48.94,5.23
511,Sola,46,VU,1659389034,78,-13.8833,167.55,80.56,15.95
512,Kahului,40,US,1659388838,68,20.8947,-156.47,82.42,17.27
513,Ketchikan,40,US,1659389034,63,55.3422,-131.6461,66.67,10.36
514,Tagusao,100,PH,1659389034,82,9.1924,117.8141,79.99,5.46
515,Rovaniemi,0,FI,1659389035,72,66.5,25.7167,62.01,3.44
516,Tumarbong,100,PH,1659389035,88,10.3766,119.4579,78.21,2.68
517,Umeå,0,SE,1659388802,100,63.8284,20.2597,60.91,5.75
518,Havre-St-Pierre,20,CA,1659389035,73,50.2334,-63.5986,70.16,10.36
519,Maceió,40,BR,1659389036,69,-9.6658,-35.7353,78.24,5.75
520,Yulara,100,AU,1659389036,29,-25.2406,130.9889,63.18,9.57
521,Atambua,100,ID,1659389037,87,-9.1061,124.8925,69.06,4.65
522,Dzhebariki-Khaya,100,RU,1659389037,68,62.2167,135.8,66.6,1.88
523,Peleduy,12,RU,1659389037,93,59.6289,112.7406,59.94,4.03
524,Uvat,0,RU,1659389037,80,59.1433,68.8953,51.87,5.77
525,Zaraza,94,VE,1659389038,69,9.3503,-65.3245,83.16,6.11
526,Vila do Maio,3,CV,1659389038,81,15.1333,-23.2167,77.79,4.52
527,Sainte-Maxime,0,FR,1659389038,85,43.3,6.6333,79.72,1.25
528,Tarko-Sale,7,RU,1659389039,73,64.9225,77.785,47.53,11.77
529,Adeje,0,ES,1659389039,73,28.1227,-16.726,82.87,8.05
530,Mandalgovi,0,MN,1659389039,67,45.7625,106.2708,64.58,8.52
531,Sturgeon Falls,98,CA,1659389040,84,46.3646,-79.9326,72.09,12.93
532,Westerland,26,DE,1659389040,76,54.9079,8.3033,53.62,5.75
533,Ntcheu,0,MW,1659388877,81,-14.8203,34.6359,57.42,6.85
534,Awjilah,0,LY,1659389041,48,29.1081,21.2869,83.88,13.56
535,Zyryanskoye,100,RU,1659389041,95,56.8306,86.6258,50.63,5.88
536,Manggar,100,ID,1659389041,84,-2.8833,108.2667,79.59,8.5
537,Banda Aceh,100,ID,1659389042,79,5.5577,95.3222,79.52,12.41
538,Chumikan,100,RU,1659389042,98,54.7183,135.315,54.03,2.71
539,Zwedru,100,LR,1659389042,94,6.0667,-8.1281,69.73,3.71
540,Amuntai,96,ID,1659389043,96,-2.4177,115.2494,72.28,0.76
541,Söderhamn,100,SE,1659389043,97,61.3037,17.0592,55.96,4.14
542,Le Port,8,RE,1659389044,75,-20.9373,55.2919,67.96,3.02
543,Santa Marta,75,CO,1659389044,62,11.2408,-74.199,89.65,4.61
544,Lamu,5,KE,1659389044,82,-2.2717,40.902,75.42,15.59
545,Palu,100,ID,1659389045,94,-0.8917,119.8707,74.88,2.66
546,Forbes,0,AU,1659389045,87,-33.3833,148.0167,35.92,3.47
547,Matadi,30,CD,1659389046,69,-5.8167,13.45,72.66,7.61
548,Amapá,87,BR,1659389046,96,1.0,-52.0,76.41,2.39
549,Falun,48,SE,1659389047,93,60.6036,15.626,57.61,6.89
550,Powell River,20,CA,1659389047,60,49.8496,-124.5361,78.33,8.05
551,Nabire,93,ID,1659389047,90,-3.3667,135.4833,74.28,3.29
552,Kharp,28,RU,1659389048,79,66.8014,65.8081,51.28,0.85
