City ID,City,Cloudiness,Country,Date,Humidity,Lat,Lng,Max Temp,Wind Speed
0,Coyhaique,75,CL,1659472862,57,-45.5752,-72.0662,46.35,5.75
1,Thompson,100,CA,1659472940,88,55.7435,-97.8558,59.16,8.05
2,Ust'-Kut,100,RU,1659473097,98,56.7938,105.7672,59.74,10.09
3,Punta Arenas,100,CL,1659472847,87,-53.15,-70.9167,42.91,8.05
4,Avarua,75,CK,1659473095,50,-21.2078,-159.775,77.05,12.66
5,Barrow,81,US,1659472858,55,71.2906,-156.7887,47.05,12.5
6,Yulara,5,AU,1659472892,54,-25.2406,130.9889,58.82,8.75
7,Esperance,36,AU,1659473055,66,-33.8667,121.9,48.04,33.04
8,Jamestown,40,US,1659473098,51,42.097,-79.2353,77.02,12.66
9,Kruisfontein,0,ZA,1659473098,59,-34.0033,24.7314,55.02,2.91
10,Tiksi,100,RU,1659473099,82,71.6872,128.8694,40.12,3.22
11,Kaitangata,42,NZ,1659473099,67,-46.2817,169.8464,50.47,16.46
12,Ushuaia,75,AR,1659472928,93,-54.8,-68.3,38.82,9.22
13,Loikaw,100,MM,1659473100,98,19.6742,97.2094,68.95,2.15
14,Rikitea,83,PF,1659473100,77,-23.1203,-134.9692,72.14,21.72
15,New Norfolk,100,AU,1659472859,77,-42.7826,147.0587,51.93,3.0
16,Yangi Marg`ilon,100,UZ,1659473101,53,40.4272,71.7189,74.12,9.22
17,Port Alfred,61,ZA,1659473101,56,-33.5906,26.891,65.88,7.27
18,Santa Maria,100,BR,1659473089,100,-29.6842,-53.8069,56.5,9.22
19,Poum,64,NC,1659473101,88,-20.2333,164.0167,74.73,13.0
20,Masallātah,0,LY,1659473102,74,32.6167,14.0,77.4,7.7
21,Port Elizabeth,2,ZA,1659473102,80,-33.918,25.5701,56.32,6.91
22,Labuhan,37,ID,1659473030,89,-6.8844,112.2051,75.79,6.89
23,Tasiilaq,13,GL,1659472877,60,65.6145,-37.6368,50.16,4.23
24,Caniço,20,PT,1659473103,80,32.6333,-16.85,73.71,23.02
25,Albany,24,US,1659473103,49,42.6001,-73.9662,89.17,3.0
26,Ribeira Grande,75,PT,1659472817,83,38.5167,-28.7,75.6,8.05
27,George Town,40,MY,1659473104,93,5.4112,100.3354,78.73,7.0
28,Bluff,52,NZ,1659473104,75,-46.6,168.3333,44.8,34.34
29,Roald,75,NO,1659473104,82,62.5833,6.1333,63.52,4.61
30,Katsuura,88,JP,1659472920,92,35.1333,140.3,80.67,11.25
31,Khasan,80,RU,1659472897,96,42.4308,130.6434,71.65,3.06
32,Saskylakh,100,RU,1659472899,80,71.9167,114.0833,43.11,8.08
33,Betlitsa,100,RU,1659473105,75,54.0095,33.9588,62.04,5.64
34,Airai,45,TL,1659473106,59,-8.9266,125.4092,55.15,1.95
35,Frontera,0,MX,1659473106,26,26.9333,-101.45,101.32,1.99
36,Hofn,41,IS,1659473066,68,64.2539,-15.2082,50.7,12.12
37,La Romana,75,DO,1659473106,66,18.4273,-68.9728,88.16,10.36
38,Severo-Kuril'sk,23,RU,1659473107,81,50.6789,156.125,54.45,7.7
39,Busselton,96,AU,1659472888,53,-33.65,115.3333,55.62,29.24
40,Hong Kong,100,HK,1659473064,82,22.2855,114.1577,84.38,5.01
41,Hobart,75,AU,1659473107,73,-42.8794,147.3294,52.27,10.36
42,Te Anau,97,NZ,1659473108,91,-45.4167,167.7167,45.23,7.4
43,Adré,69,TD,1659473108,72,13.4667,22.2,76.41,7.25
44,Gander,75,CA,1659473098,47,48.9682,-54.5906,80.73,17.27
45,Chui,25,UY,1659473108,96,-33.6971,-53.4616,54.57,4.79
46,Felanitx,4,ES,1659473109,60,39.4696,3.1483,84.96,3.18
47,Mataura,95,NZ,1659473109,72,-46.1927,168.8643,44.47,10.42
48,San Patricio,10,US,1659472910,42,28.017,-97.5169,102.16,20.6
49,Kapaa,20,US,1659473110,69,22.0752,-159.319,82.72,16.11
50,Batagay-Alyta,100,RU,1659472859,87,67.8006,130.4114,47.32,4.68
51,Dikson,72,RU,1659472849,87,73.5069,80.5464,42.71,7.83
52,Pacific Grove,0,US,1659472854,76,36.6177,-121.9166,84.34,9.22
53,Fuyang,0,CN,1659473110,71,32.9,115.8167,80.13,5.19
54,Tānsen,100,NP,1659473111,96,27.8673,83.5467,65.43,2.62
55,Aketi,85,CD,1659473111,77,2.7388,23.7833,72.01,1.39
56,Kokstad,81,ZA,1659473111,79,-30.5472,29.4241,50.99,4.18
57,Arman',45,RU,1659473112,86,59.7,150.1667,53.02,2.19
58,Tuktoyaktuk,75,CA,1659473112,82,69.4541,-133.0374,53.6,12.66
59,Faanui,40,PF,1659473112,65,-16.4833,-151.75,78.48,24.54
60,Butaritari,99,KI,1659473113,76,3.0707,172.7902,81.82,16.73
61,Cape Town,0,ZA,1659472883,89,-33.9258,18.4232,56.1,7.0
62,Liyang,24,CN,1659473113,87,29.7057,118.2862,77.61,1.41
63,Tsumeb,63,NA,1659473114,11,-19.2333,17.7167,57.11,8.55
64,Hithadhoo,54,MV,1659473114,76,-0.6,73.0833,80.24,12.41
65,Buraidah,23,SA,1659472932,34,26.326,43.975,99.05,8.61
66,Arraial do Cabo,40,BR,1659473006,83,-22.9661,-42.0278,73.36,10.36
67,Verkhniy Mamon,100,RU,1659473115,80,50.1635,40.3832,69.03,15.57
68,San Cristobal,84,VE,1659472832,62,7.7669,-72.225,78.98,5.28
69,Atuona,1,PF,1659472937,77,-9.8,-139.0333,77.11,17.54
70,Sebastian,65,US,1659473115,36,35.1668,-94.2669,100.9,8.39
71,Carnarvon,100,AU,1659473116,68,-24.8667,113.6333,66.45,19.37
72,Mabaruma,100,GY,1659473116,90,8.2,-59.7833,78.17,4.83
73,Husavik,100,IS,1659473116,97,66.0449,-17.3389,45.5,15.95
74,Anadyr,0,RU,1659473117,59,64.75,177.4833,63.1,6.71
75,East London,85,ZA,1659472819,62,-33.0153,27.9116,65.53,6.67
76,Nelson Bay,54,AU,1659472818,97,-32.7167,152.15,51.01,3.0
77,Iqaluit,75,CA,1659473117,66,63.7506,-68.5145,51.53,5.75
78,Corralillo,7,CU,1659473118,66,22.9819,-80.5856,86.56,18.21
79,Bandarbeyla,44,SO,1659473118,79,9.4942,50.8122,75.96,30.71
80,Nevel'sk,100,RU,1659473118,89,46.6733,141.8633,59.63,9.64
81,Macusani,29,PE,1659473119,57,-14.0833,-70.4333,44.53,12.73
82,Show Low,20,US,1659473119,34,34.2542,-110.0298,86.07,5.75
83,Puerto Ayora,56,EC,1659473024,81,-0.7393,-90.3518,80.56,7.0
84,Mar del Plata,75,AR,1659472957,96,-38.0023,-57.5575,56.08,5.75
85,Souillac,40,MU,1659473120,68,-20.5167,57.5167,70.18,4.61
86,Kununurra,59,AU,1659473120,88,-15.7667,128.7333,58.98,0.0
87,Bredasdorp,53,ZA,1659473120,85,-34.5322,20.0403,49.96,2.44
88,Pastavy,7,BY,1659473121,89,55.1168,26.8326,57.54,2.19
89,Khatanga,100,RU,1659473121,72,71.9667,102.5,43.66,5.46
90,Bud,86,US,1659473121,63,39.447,-86.1758,83.05,4.72
91,Vao,65,NC,1659472914,85,-22.6667,167.4833,73.17,8.63
92,Nemuro,98,JP,1659473065,95,43.3236,145.575,60.03,9.17
93,Castro,0,BR,1659472884,53,-24.7911,-50.0119,64.9,1.83
94,Fort Nelson,75,CA,1659472883,49,58.8053,-122.7002,71.19,12.66
95,Lüderitz,0,NA,1659473122,80,-26.6481,15.1594,54.32,0.85
96,Narsaq,51,GL,1659472931,66,60.9167,-46.05,59.22,5.37
97,Malakal,95,SS,1659473123,94,9.5334,31.6605,69.94,3.67
98,Lavrentiya,4,RU,1659473123,55,65.5833,-171.0,56.53,9.91
99,Saint Paul Harbor,0,US,1659472969,48,57.79,-152.4072,65.71,14.97
100,Adrar,11,MR,1659473124,23,20.5022,-10.0711,97.88,12.35
101,Buala,31,SB,1659473124,79,-8.145,159.5921,81.09,8.5
102,Khanbari,100,NP,1659473124,95,27.3747,87.2039,71.49,2.55
103,Vaini,40,TO,1659473012,88,-21.2,-175.2,77.16,8.05
104,Broken Hill,1,AU,1659473125,61,-31.95,141.4333,56.3,19.77
105,Qaanaaq,97,GL,1659472893,57,77.484,-69.3632,47.1,0.76
106,Ahipara,100,NZ,1659472898,87,-35.1667,173.1667,56.3,4.61
107,College,75,US,1659472895,77,64.8569,-147.8028,66.15,5.75
108,Sistranda,100,NO,1659473125,90,63.7256,8.834,58.96,5.26
109,Nanortalik,28,GL,1659472946,79,60.1432,-45.2371,47.64,11.56
110,Boksitogorsk,35,RU,1659473126,98,59.474,33.8485,58.6,3.24
111,Villa de Cura,87,VE,1659473126,64,10.0386,-67.4894,90.25,2.39
112,San Quintín,67,MX,1659473007,65,30.4833,-115.95,77.13,14.83
113,Kuching,40,MY,1659473127,94,1.55,110.3333,75.42,0.0
114,Pleshanovo,0,RU,1659473127,94,52.8333,53.4833,61.43,6.13
115,Upernavik,93,GL,1659472905,73,72.7868,-56.1549,45.93,6.8
116,Hīt,0,IQ,1659473127,19,33.6416,42.8251,99.61,9.6
117,Hilo,100,US,1659473128,93,19.7297,-155.09,79.61,4.61
118,Ponta Porã,0,BR,1659473128,30,-22.5361,-55.7256,84.11,6.91
119,Nikolskoye,65,RU,1659473129,91,59.7035,30.7861,62.8,4.07
120,Makakilo City,0,US,1659473129,56,21.3469,-158.0858,82.72,12.66
121,Qujing,78,CN,1659473129,95,25.4833,103.7833,61.72,2.57
122,Kavieng,31,PG,1659473130,76,-2.5744,150.7967,81.66,14.58
123,Riachão das Neves,20,BR,1659473130,24,-11.7461,-44.91,81.32,5.08
124,Mayo,20,US,1659473088,56,38.8876,-76.5119,93.61,6.91
125,Clyde River,100,CA,1659473130,93,70.4692,-68.5914,41.23,11.5
126,Portland,4,US,1659473013,51,45.5234,-122.6762,88.48,1.01
127,São Filipe,76,CV,1659473131,80,14.8961,-24.4956,78.33,5.53
128,Sikeston,0,US,1659473131,66,36.8767,-89.5879,89.53,5.75
129,Denholm,97,CA,1659473132,85,52.6501,-108.018,62.73,19.17
130,Vardø,59,NO,1659472868,94,70.3705,31.1107,55.38,2.3
131,Provideniya,0,RU,1659473093,76,64.3833,-173.3,53.71,2.24
132,Santa Isabel Rio Negro,99,BR,1659473132,73,-0.4139,-65.0192,83.55,3.44
133,Lahaina,1,US,1659473133,77,20.8783,-156.6825,84.2,8.43
134,Qui Nhon,93,VN,1659473133,81,13.7667,109.2333,79.81,3.65
135,Comodoro Rivadavia,0,AR,1659473133,40,-45.8667,-67.5,51.66,11.5
136,Flinders,96,AU,1659473134,70,-34.5833,150.8552,55.38,5.99
137,Cidreira,28,BR,1659473058,88,-30.1811,-50.2056,60.44,9.33
138,Wagar,100,SD,1659473134,62,16.1525,36.2032,81.41,19.19
139,Sandūr,100,IN,1659473134,80,15.1,76.55,76.17,5.91
140,Ilulissat,40,GL,1659473056,87,69.2167,-51.1,50.02,5.75
141,Sitka,100,US,1659473135,88,57.0531,-135.33,55.29,5.75
142,Karakol,100,KG,1659473135,54,42.4907,78.3936,58.62,3.96
143,Sabang,100,ID,1659473136,72,5.8933,95.3214,81.07,22.1
144,Mount Gambier,99,AU,1659473136,80,-37.8333,140.7667,52.75,16.44
145,Hermanus,14,ZA,1659473136,78,-34.4187,19.2345,50.81,1.59
146,Āreka,98,ET,1659473137,96,7.0667,37.7,56.64,1.66
147,Aklavik,100,CA,1659473069,81,68.2191,-135.0107,48.2,14.97
148,Monrovia,97,LR,1659473111,83,6.3005,-10.7969,76.77,10.63
149,Río Gallegos,0,AR,1659473137,75,-51.6226,-69.2181,41.05,3.44
150,Belomorsk,100,RU,1659473138,96,64.5232,34.7668,58.78,7.36
151,Yarega,97,RU,1659473138,73,63.4354,53.5765,62.78,3.0
152,Raudeberg,100,NO,1659473138,63,61.9875,5.1352,58.87,22.35
153,Lakes Entrance,53,AU,1659473139,63,-37.8811,147.981,55.17,10.18
154,Karratha,0,AU,1659473139,64,-20.7377,116.8463,64.49,14.88
155,Uray,11,RU,1659473139,70,60.1247,64.7758,55.0,3.15
156,Tabou,100,CI,1659473140,71,4.423,-7.3528,75.67,7.92
157,Ouadda,100,CF,1659473140,96,8.0777,22.4007,68.41,2.26
158,Viedma,2,AR,1659473140,65,-40.8135,-62.9967,52.03,8.55
159,Saint-Philippe,37,RE,1659472939,80,-21.3585,55.7679,65.79,6.08
160,Reconquista,71,AR,1659473141,67,-29.15,-59.65,70.09,7.23
161,Egvekinot,1,RU,1659472887,54,66.3167,-179.1667,55.81,5.37
162,Mahébourg,40,MU,1659472936,68,-20.4081,57.7,70.09,4.61
163,Niksar,58,TR,1659473142,92,40.5917,36.9517,69.55,3.18
164,Touros,50,BR,1659473142,83,-5.1989,-35.4608,77.05,7.94
165,Torbay,75,CA,1659473142,56,47.6666,-52.7314,79.57,14.97
166,Saint George,0,US,1659473143,28,37.1041,-113.5841,99.43,5.99
167,Kavaratti,100,IN,1659472995,84,10.5669,72.642,78.03,27.96
168,Nālūt,29,LY,1659473143,23,30.3333,10.85,91.56,15.75
169,Nuevo Casas Grandes,2,MX,1659473144,27,30.4167,-107.9167,91.54,11.5
170,Dhārchula,96,IN,1659473144,98,29.85,80.5333,71.83,1.01
171,Abu Samrah,0,SY,1659472897,57,35.3029,37.1841,79.12,9.89
172,Durango,93,MX,1659472866,30,24.8333,-104.8333,80.13,6.35
173,Miraflores,80,MX,1659473145,72,19.2167,-98.8083,75.02,5.61
174,Teeli,20,RU,1659473145,80,51.0333,90.2333,54.81,1.66
175,Rome,20,US,1659473145,61,43.2128,-75.4557,82.96,13.8
176,Lima,40,PE,1659473135,72,-12.0432,-77.0282,61.05,12.66
177,Peterhead,25,GB,1659473146,78,57.5058,-1.7981,66.6,11.77
178,Phichit,97,TH,1659473146,92,16.25,100.4167,77.18,5.03
179,Porto Nacional,32,BR,1659473146,24,-10.7081,-48.4172,93.2,3.69
180,Wawa,100,NG,1659473147,90,9.9022,4.4192,73.96,5.59
181,Fairbanks,75,US,1659473097,77,64.8378,-147.7164,66.16,5.75
182,Fortuna,0,US,1659472925,75,40.5982,-124.1573,74.93,13.8
183,Eenhana,49,NA,1659473147,18,-17.4667,16.3333,55.35,6.64
184,Lebu,0,CL,1659473148,73,-37.6167,-73.65,50.11,15.75
185,Tokur,100,RU,1659473148,99,53.1333,132.9,55.4,2.66
186,Pevek,100,RU,1659473148,99,69.7008,170.3133,35.78,8.43
187,Semīrom,72,IR,1659473149,31,31.4167,51.5667,71.62,5.06
188,Marawi,74,PH,1659473149,92,7.9986,124.2928,67.37,2.84
189,Avera,61,US,1659473150,31,33.194,-82.5271,94.55,7.36
190,Wonthaggi,79,AU,1659473150,70,-38.6044,145.5913,53.82,26.33
191,Maryborough,44,AU,1659473150,96,-25.5333,152.7,57.11,2.89
192,Paphos,0,CY,1659473151,83,34.7667,32.4167,80.38,4.61
193,West Lorne,2,CA,1659473151,46,42.6001,-81.5998,75.45,8.57
194,Xam Nua,98,LA,1659473151,99,20.4197,104.0439,66.33,1.39
195,Beringovskiy,57,RU,1659473152,65,63.05,179.3167,56.34,3.31
196,Yüksekova,0,TR,1659473152,42,37.5736,44.2872,64.15,1.14
197,Udayagiri,83,IN,1659473152,91,20.1333,84.3833,72.9,0.72
198,Athabasca,100,CA,1659473153,80,54.7169,-113.2854,57.61,8.72
199,Eureka,32,US,1659473153,77,40.8021,-124.1637,75.2,4.0
200,Itaituba,40,BR,1659473153,94,-4.2761,-55.9836,77.16,0.0
201,Pierre,0,US,1659472961,14,44.3683,-100.351,104.92,3.44
202,Nador,0,MA,1659473154,75,35.174,-2.9287,80.67,4.43
203,Peremyshl',100,RU,1659473154,80,54.2631,36.1606,63.16,6.08
204,Vigrestad,84,NO,1659473154,98,58.5667,5.7,62.96,12.12
205,Ponta do Sol,6,PT,1659473155,81,32.6667,-17.1,73.71,6.64
206,Solnechnyy,100,RU,1659473155,99,50.7214,136.6319,63.14,1.12
207,Canmore,78,CA,1659472927,27,51.0834,-115.3521,75.31,9.22
208,Peniche,96,PT,1659473156,88,39.3558,-9.3811,70.29,15.35
209,Port Hardy,75,CA,1659473109,77,50.6996,-127.4199,64.58,10.36
210,Yellowknife,20,CA,1659473156,28,62.456,-114.3525,68.52,5.75
211,Huilong,0,CN,1659473157,84,31.8111,121.655,82.92,11.97
212,Maltahöhe,0,NA,1659473157,70,-24.8333,16.9833,48.42,9.04
213,Diamantino,98,BR,1659473157,18,-14.4086,-56.4461,90.57,3.0
214,Waitati,0,NZ,1659473158,70,-45.75,170.5667,46.56,3.98
215,Peleduy,97,RU,1659473158,82,59.6289,112.7406,63.63,3.85
216,Srednekolymsk,100,RU,1659473158,96,67.45,153.6833,60.78,6.38
217,Kāzerūn,49,IR,1659473159,57,29.6195,51.6541,87.8,1.81
218,São João da Barra,44,BR,1659473159,84,-21.6403,-41.0511,77.09,11.65
219,Amarillo,0,US,1659473159,26,35.222,-101.8313,100.09,23.02
220,Haines Junction,100,CA,1659473160,87,60.7522,-137.5108,53.55,2.3
221,Kushiro,100,JP,1659473160,97,42.975,144.3747,59.99,6.31
222,Tessalit,100,ML,1659473161,60,20.1986,1.0114,77.59,29.1
223,Bereda,29,ES,1659473161,100,43.2686,-7.5406,68.41,4.88
224,Puerto Ayacucho,100,VE,1659473161,78,5.6639,-67.6236,81.75,5.26
225,Malakanagiri,100,IN,1659473162,90,18.35,81.9,78.28,1.54
226,Colares,20,PT,1659473162,73,38.7992,-9.4469,71.29,21.85
227,Malaya Purga,6,RU,1659473162,73,56.5567,53.0043,59.5,4.76
228,Port Augusta,75,AU,1659473163,82,-32.5,137.7667,55.76,10.89
229,Inzer,84,RU,1659473163,96,54.2167,57.5556,55.53,3.15
230,Petropavlovsk-Kamchatskiy,0,RU,1659473163,88,53.0452,158.6483,54.19,4.47
231,Longyearbyen,75,SJ,1659473141,87,78.2186,15.6401,49.84,5.75
232,Hamilton,20,US,1659473132,63,39.1834,-84.5333,89.17,12.66
233,Abashiri,100,JP,1659473164,93,44.0213,144.2697,64.94,10.16
234,Necochea,100,AR,1659473164,75,-38.5473,-58.7368,55.35,4.81
235,Pringsewu,98,ID,1659473165,97,-5.3582,104.9744,73.26,2.35
236,Bethel,40,US,1659472904,55,41.3712,-73.414,90.48,12.66
237,Hvolsvollur,56,IS,1659473165,70,63.7533,-20.2243,49.55,13.51
238,Ayan,100,RU,1659473166,97,56.45,138.1667,56.62,11.81
239,Paamiut,67,GL,1659473166,90,61.994,-49.6678,43.83,4.47
240,Luzino,40,RU,1659473166,67,54.9481,73.0353,58.77,8.95
241,Brae,99,GB,1659473167,93,60.3964,-1.353,56.8,24.61
242,Ancud,97,CL,1659473167,84,-41.8697,-73.8203,47.23,4.03
243,Hambantota,100,LK,1659473167,82,6.1241,81.1185,77.81,26.15
244,Atikokan,99,CA,1659473168,41,48.7555,-91.6216,79.57,10.49
245,Tuatapere,78,NZ,1659473168,84,-46.1333,167.6833,47.43,11.88
246,Saýat,0,TM,1659473168,27,38.7839,63.8803,80.47,8.55
247,Ixtapa,64,MX,1659473169,73,20.7,-105.2,86.23,3.0
248,Cayenne,75,GF,1659473113,9,4.9333,-52.3333,85.08,1.99
249,Nuuk,40,GL,1659473169,81,64.1835,-51.7216,50.61,11.5
250,Palmer,20,US,1659473169,62,42.1584,-72.3287,90.77,1.01
251,Paraúna,10,BR,1659473170,23,-16.9478,-50.4486,81.64,5.1
252,Kumul,55,CN,1659473027,66,42.8,93.45,71.89,10.27
253,Katherine,100,AU,1659472957,72,-14.4667,132.2667,66.52,3.44
254,Berdigestyakh,70,RU,1659472989,97,62.0989,126.6992,62.8,2.73
255,Ambovombe,18,MG,1659473171,68,-25.1667,46.0833,64.27,14.72
256,Baturaja,100,ID,1659473171,98,-4.1333,104.1667,72.88,1.63
257,Pedernales,9,DO,1659473171,62,18.0384,-71.744,87.26,2.39
258,Durazno,48,UY,1659473172,86,-33.4131,-56.5006,58.33,7.02
259,Vila Franca do Campo,74,PT,1659473172,74,37.7167,-25.4333,73.81,2.24
260,Billings Metropolitan Area,75,US,1659472932,20,45.7833,-108.5007,96.73,18.41
261,Kaoma,11,ZM,1659473172,45,-14.7833,24.8,62.76,9.46
262,Kisanga,48,TZ,1659473173,71,-7.4362,37.7034,70.93,3.13
263,Cairns,10,AU,1659473173,91,-16.9167,145.7667,69.75,10.36
264,Pisco,0,PE,1659472962,77,-13.7,-76.2167,64.02,10.36
265,Faya,97,SA,1659473174,76,18.3851,42.4509,62.71,3.33
266,Nizhneudinsk,92,RU,1659473174,95,54.9076,99.0276,56.41,4.47
267,Port Hawkesbury,100,CA,1659473174,96,45.6169,-61.3485,75.15,10.36
268,Raposa,40,BR,1659473175,19,-6.5167,-44.1833,82.2,5.06
269,Vostok,90,RU,1659473175,81,46.4856,135.8833,66.4,3.74
270,Araouane,71,ML,1659473176,30,18.9048,-3.5265,98.42,11.45
271,Lhokseumawe,100,ID,1659473176,84,5.1801,97.1507,76.73,4.16
272,Kasongo-Lunda,75,CD,1659473176,41,-6.4667,16.8167,81.01,4.14
273,Safi,22,MA,1659473177,84,32.2994,-9.2372,73.08,12.71
274,Nicoya,100,CR,1659473177,96,10.1483,-85.452,74.57,7.94
275,Sos'va,0,RU,1659473177,84,59.1766,61.8558,53.56,2.1
276,Liwale,83,TZ,1659473178,63,-9.7667,37.9333,67.14,2.44
277,Coolum Beach,81,AU,1659473178,98,-26.5333,153.1,57.34,2.64
278,Stjørdalshalsen,75,NO,1659473178,63,63.4681,10.9262,60.8,5.75
279,Chokurdakh,100,RU,1659473179,64,70.6333,147.9167,53.73,6.51
280,Granadilla de Abona,0,ES,1659473179,73,28.1188,-16.576,77.76,5.75
281,St. George's,20,GD,1659472987,74,12.0564,-61.7485,85.68,25.32
282,Murowana Goślina,99,PL,1659473179,42,52.5746,17.0093,72.91,5.12
283,Aswān,68,EG,1659473180,18,24.0934,32.907,92.1,12.55
284,Pendleton,0,US,1659473180,26,45.6721,-118.7886,94.6,13.8
285,Cherskiy,100,RU,1659473103,99,68.75,161.3,49.19,6.42
286,Berlevåg,0,NO,1659473181,87,70.8578,29.0864,66.0,3.44
287,Turukhansk,98,RU,1659473181,65,65.8167,87.9833,52.05,2.86
288,Inverell,97,AU,1659473181,86,-29.7833,151.1167,51.15,4.0
289,Shimanovsk,1,RU,1659473182,90,52.0,127.7,63.45,3.15
290,Bilma,5,NE,1659473182,32,18.6853,12.9164,93.18,6.82
291,Newcastle,66,AU,1659472909,77,-32.9272,151.7765,52.65,1.01
292,Korla,1,CN,1659473182,47,41.7597,86.1469,73.9,0.11
293,Caçu,0,BR,1659473183,24,-18.5567,-51.1308,83.25,6.51
294,Chumikan,100,RU,1659473183,99,54.7183,135.315,54.25,8.48
295,Verkhnetulomskiy,100,RU,1659473183,95,68.6073,31.7962,57.33,0.98
296,Koumac,76,NC,1659473184,87,-20.5667,164.2833,74.48,7.7
297,Puerto López,53,CO,1659473184,80,4.0845,-72.956,80.55,4.36
298,Mawlaik,100,MM,1659473184,99,23.6333,94.4167,77.27,1.41
299,Matara,100,LK,1659473185,87,5.9485,80.5353,76.44,19.69
300,Nur-Sultan,0,KZ,1659473185,82,51.1801,71.446,53.55,11.18
301,Geraldton,75,AU,1659472996,67,-28.7667,114.6,61.21,21.85
302,Gamba,68,GA,1659473186,93,-2.65,10.0,70.18,5.97
303,Seymchan,100,RU,1659473186,63,62.8833,152.4333,65.8,8.68
304,Zhigalovo,98,RU,1659473186,96,54.8097,105.1578,58.26,5.32
305,Vestmannaeyjar,29,IS,1659473187,70,63.4427,-20.2734,52.59,22.28
306,Lompoc,0,US,1659473187,66,34.6391,-120.4579,94.01,12.66
307,Saldanha,31,ZA,1659473188,90,-33.0117,17.9442,55.45,10.22
308,Norman Wells,75,CA,1659473188,46,65.282,-126.8329,73.44,12.66
309,Oodweyne,75,SO,1659473188,44,9.4092,45.064,76.1,15.55
310,Vila Velha,20,BR,1659473189,85,-20.3297,-40.2925,76.95,12.66
311,Weligama,100,LK,1659473104,86,5.9667,80.4167,76.64,19.93
312,Praxédis Guerrero,2,MX,1659473189,19,31.3667,-106.0167,98.06,6.44
313,Abay,84,KZ,1659473189,71,49.6311,72.8539,55.78,12.03
314,Alice Springs,100,AU,1659473190,24,-23.7,133.8833,69.35,10.36
315,Nome,0,US,1659473170,53,64.5011,-165.4064,69.12,12.66
316,Seda,100,LV,1659473190,91,57.65,25.75,61.05,4.0
317,Hammerfest,75,NO,1659473191,87,70.6634,23.6821,54.05,2.3
318,Surgāna,100,IN,1659473191,93,20.5667,73.6167,72.37,2.93
319,Ternate,100,ID,1659473192,84,0.8,127.4,78.31,2.24
320,Poconé,100,BR,1659473192,18,-16.2567,-56.6228,91.0,1.83
321,Port Keats,13,AU,1659472967,84,-14.25,129.55,69.87,0.83
322,Santa Marinella,29,IT,1659473192,66,42.0345,11.8536,83.93,0.89
323,La Reforma,93,MX,1659473193,59,25.0833,-108.05,88.07,7.9
324,Vilhena,0,BR,1659473193,33,-12.7406,-60.1458,88.02,9.22
325,Oranjemund,5,NA,1659473193,88,-28.55,16.4333,53.51,6.4
326,Agadez,14,NE,1659473194,11,19.75,10.25,90.14,7.29
327,Gambiran,93,ID,1659473194,91,-6.7988,111.4951,73.44,4.63
328,Tefé,20,BR,1659473195,70,-3.3542,-64.7114,87.91,5.75
329,Harper,100,LR,1659473195,71,4.375,-7.7169,75.6,8.39
330,Bengkulu,39,ID,1659472929,92,-3.8004,102.2655,74.25,4.45
331,Mokhsogollokh,100,RU,1659473195,95,61.4681,128.9203,62.56,1.68
332,Novoagansk,22,RU,1659473196,76,61.9449,76.6625,52.72,6.6
333,Naze,62,JP,1659472978,86,28.3667,129.4833,79.72,7.92
334,Narrabri,100,AU,1659473196,86,-30.3167,149.7833,53.53,5.68
335,Moshkovo,12,RU,1659473197,89,55.3053,83.6104,49.73,5.12
336,Cabo San Lucas,20,MX,1659473197,62,22.8909,-109.9124,93.61,11.5
337,Marsh Harbour,0,BS,1659473197,65,26.5412,-77.0636,83.32,10.38
338,Hasaki,81,JP,1659473198,92,35.7333,140.8333,79.29,8.61
339,Magadan,85,RU,1659473198,92,59.5667,150.8,52.54,7.58
340,Caraballeda,54,VE,1659473198,86,10.6112,-66.8522,86.72,9.84
341,Una,93,IN,1659473199,81,20.8167,71.0333,80.71,7.94
342,Khilok,100,RU,1659473199,94,51.3674,110.4676,60.28,1.39
343,Chernyshevskiy,94,RU,1659473199,98,63.0128,112.4714,59.74,7.25
344,Medianeira,0,BR,1659473200,59,-25.2953,-54.0939,72.23,3.67
345,Sawākin,100,SD,1659473200,44,19.1059,37.3321,93.7,11.5
346,Henties Bay,0,NA,1659473188,81,-22.116,14.2845,53.33,6.98
347,Lashio,54,MM,1659473200,99,22.9333,97.75,68.25,1.36
348,Hualmay,10,PE,1659473197,72,-11.0964,-77.6139,65.43,12.55
349,Ariquemes,52,BR,1659473201,29,-9.9133,-63.0408,95.22,2.93
350,Amga,20,RU,1659473201,97,60.8953,131.9608,64.47,0.11
351,Cabedelo,7,BR,1659473202,85,-6.9811,-34.8339,77.67,6.91
352,Dubai,0,AE,1659473017,39,25.2582,55.3047,98.53,5.75
353,Huarmey,6,PE,1659473202,73,-10.0681,-78.1522,66.67,12.57
354,Dingle,96,PH,1659473033,89,10.9995,122.6711,75.79,4.85
355,Vanimo,89,PG,1659473203,88,-2.6741,141.3028,77.59,6.96
356,Marsá Maţrūḩ,0,EG,1659473203,78,31.3525,27.2453,80.8,5.75
357,Takaka,93,NZ,1659473203,92,-40.85,172.8,55.56,4.38
358,Okahandja,0,NA,1659473204,24,-21.9833,16.9167,43.57,2.77
359,Aguada de Pasajeros,8,CU,1659473204,39,22.385,-80.8508,96.94,10.58
360,Constitución,0,CL,1659472944,64,-35.3333,-72.4167,54.37,13.0
361,Mareeba,25,AU,1659473204,92,-17.0,145.4333,65.12,2.82
362,Asău,1,RO,1659473205,65,46.4333,26.4,61.72,4.43
363,Yavaros,9,MX,1659473205,49,26.7,-109.5167,92.44,11.03
364,Boa Vista,75,BR,1659472922,62,2.8197,-60.6733,85.98,5.75
365,Khandyga,99,RU,1659473205,95,62.6667,135.6,62.89,3.36
366,Burnie,100,AU,1659472969,92,-41.0667,145.9167,53.92,25.99
367,Port Blair,100,IN,1659473206,92,11.6667,92.75,77.65,20.27
368,Bac Lieu,81,VN,1659473206,85,9.285,105.7244,78.87,6.29
369,Port Lincoln,0,AU,1659473182,73,-34.7333,135.8667,56.23,18.88
370,Sørland,4,NO,1659473207,73,67.667,12.6934,53.46,12.3
371,Longkou,0,CN,1659473207,82,37.6508,120.3286,80.08,8.55
372,Nivala,0,FI,1659473207,89,63.9167,24.9667,49.68,6.46
373,Suntar,70,RU,1659473208,95,62.1444,117.6319,62.33,4.25
374,Shurugwi,34,ZW,1659473208,78,-19.6702,30.0059,50.09,3.78
375,Dumas,0,US,1659473208,24,35.8656,-101.9732,96.94,20.71
376,Tamandaré,69,BR,1659473209,91,-8.7597,-35.1047,74.77,6.17
377,Katobu,75,ID,1659473209,93,-4.9408,122.5276,71.76,3.53
378,Tiznit Province,38,MA,1659473210,21,29.5833,-9.5,90.97,2.3
379,Aci Castello,0,IT,1659473210,63,37.5583,15.1346,84.61,10.36
380,Guerrero Negro,100,MX,1659473178,52,27.9769,-114.0611,80.96,18.9
381,Alofi,40,NU,1659473210,88,-19.0595,-169.9187,75.09,11.5
382,Nzega,96,RW,1659473211,93,-2.479,29.5564,55.45,1.66
383,Ginda,93,IN,1659473211,96,30.6945,78.4932,66.58,0.18
384,West Bay,20,KY,1659473112,64,19.3667,-81.4167,91.47,13.8
385,Port-Gentil,40,GA,1659473212,83,-0.7193,8.7815,75.16,10.36
386,Conceição do Araguaia,80,BR,1659473212,24,-8.2578,-49.2647,89.98,3.65
387,Ulladulla,100,AU,1659473212,59,-35.35,150.4667,54.97,9.13
388,Lata,0,PT,1659473213,89,40.1629,-8.3327,64.31,2.53
389,Gijang,99,KR,1659473213,92,35.2442,129.2139,80.33,7.49
390,Gazli,37,UZ,1659473213,26,40.1333,63.45,85.12,7.9
391,Clonakilty,100,IE,1659473214,82,51.6231,-8.8706,63.09,16.33
392,Jacareacanga,95,BR,1659473214,48,-6.2222,-57.7528,88.66,4.29
393,Deputatsky,97,RU,1659473005,78,69.3,139.9,45.32,3.67
394,Ust-Kuyga,100,RU,1659473215,73,70.0167,135.6,47.89,6.89
395,‘Āhuimanu,40,US,1659473215,63,21.4447,-157.8378,83.91,12.66
396,Amarante do Maranhão,94,BR,1659473216,29,-5.5667,-46.7422,86.92,4.23
397,Tūkrah,0,LY,1659473216,70,32.5341,20.5791,79.66,11.21
398,Orange Cove,0,US,1659473216,31,36.6244,-119.3137,100.62,6.91
399,Togur,31,RU,1659473217,79,58.3631,82.8265,49.84,7.07
400,Caravelas,16,BR,1659473217,83,-17.7125,-39.2481,70.29,5.17
401,Strezhevoy,13,RU,1659473217,81,60.7333,77.5889,51.24,6.96
402,Nsanje,97,MW,1659473218,87,-16.92,35.262,66.56,2.89
403,Ketchikan,100,US,1659473078,94,55.3422,-131.6461,60.78,11.5
404,Kulhudhuffushi,100,MV,1659473218,78,6.6221,73.07,80.82,22.39
405,Bredy,99,RU,1659473219,86,52.4153,60.3411,60.24,10.63
406,Timmins,40,CA,1659473219,49,48.4669,-81.3331,67.82,3.44
407,Aksarka,46,RU,1659473219,70,66.5606,67.7975,56.08,8.05
408,Mollendo,41,PE,1659473220,76,-17.0231,-72.0147,61.56,6.62
409,Sibu,40,MY,1659473220,88,2.3,111.8167,75.51,3.44
410,Yangjiang,100,CN,1659473220,84,21.85,111.9667,80.6,3.98
411,Tual,72,ID,1659473221,83,-5.6667,132.75,79.72,13.13
412,Manaure,100,CO,1659473221,51,11.7751,-72.4445,88.63,20.11
413,Eldorado,0,BR,1659473221,40,-23.7869,-54.2836,77.65,5.57
414,Qaqortoq,41,GL,1659473222,74,60.7167,-46.0333,48.83,9.6
415,Invermere,24,CA,1659473110,19,50.5167,-116.0354,87.28,3.18
416,Dryden,0,CA,1659473222,53,49.7833,-92.7503,79.09,13.8
417,Saiha,100,IN,1659473222,99,22.4833,92.9667,72.3,1.23
418,Orlik,25,RU,1659473223,84,52.5178,99.825,51.35,0.13
419,Kemijärvi,100,FI,1659473223,94,66.7131,27.4306,55.98,3.78
420,Makkah al Mukarramah,95,SA,1659473223,61,21.4267,39.8261,85.28,14.54
421,Cap-aux-Meules,75,CA,1659473177,78,47.3821,-61.8597,73.45,12.66
422,Mahon,0,ES,1659473224,53,39.8885,4.2658,79.36,0.0
423,Huancavelica,66,PE,1659473224,43,-12.7667,-74.9833,49.48,3.29
424,Manokwari,100,ID,1659473225,76,-0.8667,134.0833,78.13,2.55
425,Charters Towers,44,AU,1659473225,93,-20.1,146.2667,60.98,9.46
426,Uauá,52,BR,1659473225,46,-9.8414,-39.4817,78.87,15.23
427,Havre-St-Pierre,100,CA,1659473050,94,50.2334,-63.5986,64.76,9.22
428,Bambous Virieux,40,MU,1659473226,68,-20.3428,57.7575,70.05,4.61
429,Merauke,65,ID,1659472974,91,-8.4667,140.3333,75.99,8.93
430,Moose Factory,40,CA,1659473226,49,51.2585,-80.6094,73.4,12.66
431,Senno,33,RU,1659473227,98,59.5336,33.9167,58.26,3.31
432,Acapulco de Juárez,40,MX,1659473021,66,16.8634,-99.8901,89.42,6.91
433,Shenjiamen,42,CN,1659472988,86,29.9576,122.298,82.0,10.4
434,Quesnel,0,CA,1659473107,38,52.9999,-122.5029,73.9,8.05
435,Klaksvík,98,FO,1659473197,93,62.2266,-6.589,50.92,15.39
436,Gloucester,38,GB,1659473228,83,51.8657,-2.2431,71.37,1.01
437,Cotonou,40,BJ,1659473228,83,6.3654,2.4183,75.18,6.91
438,Hadejia,91,NG,1659473228,90,12.4498,10.0444,71.78,13.73
439,Emerald,20,AU,1659473229,93,-23.5333,148.1667,53.35,7.61
440,Kedrovyy,96,RU,1659473229,77,56.1667,91.8167,52.21,3.11
441,Thinadhoo,78,MV,1659473229,77,0.5333,72.9333,80.17,12.41
442,Nantucket,40,US,1659473230,89,41.2835,-70.0995,84.31,9.22
443,Teknāf,100,BD,1659473230,87,20.8624,92.3058,80.29,4.52
444,Carutapera,14,BR,1659473230,82,-1.195,-46.02,78.96,9.31
445,Bonga,99,ET,1659473231,98,7.2833,36.2333,57.58,1.14
446,Coahuayana Viejo,66,MX,1659473231,54,18.7333,-103.6833,92.39,6.11
447,Ahtopol,2,BG,1659473231,78,42.1,27.95,71.08,2.1
448,Stornoway,75,GB,1659473232,87,58.2093,-6.3865,58.93,16.11
449,Vila,0,PT,1659473232,70,42.0304,-8.1588,71.71,1.19
450,Bathsheba,40,BB,1659473232,82,13.2167,-59.5167,86.61,23.02
451,Borogontsy,100,RU,1659473233,97,62.6683,131.1683,61.5,2.73
452,Jining,99,CN,1659473233,81,35.405,116.5814,80.82,5.64
453,Huambo,63,AO,1659472934,33,-12.7761,15.7392,59.13,2.17
454,Florø,100,NO,1659473234,100,61.5996,5.0328,60.87,24.16
455,Morristown,0,US,1659473111,61,36.214,-83.2949,88.5,4.61
456,Leirvik,100,NO,1659473234,92,59.7798,5.5005,59.86,10.49
457,Lebanon,0,US,1659473044,53,36.2081,-86.2911,94.84,0.0
458,Syamzha,92,RU,1659473235,83,60.0158,41.0614,58.6,5.48
459,Kamenka,73,RU,1659473235,55,51.3223,42.7678,68.0,12.15
460,Lębork,97,PL,1659473236,85,54.5392,17.7501,59.92,5.97
461,Maceió,100,BR,1659472999,94,-9.6658,-35.7353,74.64,11.5
462,Yamada,100,JP,1659473236,99,39.4667,141.95,71.53,3.33
463,Juradó,60,CO,1659473236,79,7.1053,-77.7641,81.01,8.28
464,Laguna,0,US,1659473237,36,38.421,-121.4238,102.09,8.05
465,Chapais,29,CA,1659473237,37,49.7834,-74.8492,64.18,8.16
466,Peruíbe,0,BR,1659473238,93,-24.32,-46.9983,64.72,4.18
467,Aljezur,20,PT,1659473238,95,37.3191,-8.8033,65.71,11.43
468,Zhalantun,100,CN,1659473238,70,48.0,122.7167,69.91,4.54
469,Auki,23,SB,1659473239,81,-8.7676,160.7034,79.86,5.14
470,Zemio,98,CF,1659473239,72,5.0314,25.1361,74.37,2.08
471,Springbok,43,ZA,1659473239,73,-29.6643,17.8865,54.19,7.05
472,Aykhal,100,RU,1659473086,97,66.0,111.5,43.23,19.89
473,Esim,32,GH,1659473240,79,4.8699,-2.2405,73.4,7.58
474,Taseyevo,100,RU,1659473240,79,57.2169,94.8978,53.55,4.79
475,Agadir,86,MA,1659473067,52,30.4202,-9.5982,75.65,1.95
476,Amudat,80,UG,1659473241,88,1.95,34.95,63.86,2.46
477,Barão de Melgaço,99,BR,1659473241,17,-16.1944,-55.9675,91.62,2.62
478,Broome,20,US,1659473242,51,42.2506,-75.833,87.53,12.66
479,Awjilah,0,LY,1659473242,49,29.1081,21.2869,82.36,17.96
480,Palmas,0,BR,1659473243,29,-10.2128,-48.3603,93.07,5.75
481,Rocha,54,UY,1659472984,96,-34.4833,-54.3333,55.98,6.49
482,Hay River,20,CA,1659473243,42,60.8156,-115.7999,69.76,6.91
483,Grand Gaube,0,MU,1659473243,75,-20.0064,57.6608,70.2,3.0
484,Madisonville,34,US,1659473244,37,37.3281,-87.4989,87.66,6.78
485,Mehamn,100,NO,1659473244,100,71.0357,27.8492,53.51,3.44
486,Dakar,40,SN,1659473194,74,14.6937,-17.4441,84.33,6.91
487,Davidson,40,US,1659473244,52,36.1501,-86.7833,96.69,8.05
488,Sambava,21,MG,1659473201,87,-14.2667,50.1667,66.11,10.56
489,Scarborough,100,GB,1659473122,76,54.2797,-0.4044,72.97,5.99
490,Salalah,100,OM,1659473245,89,17.0151,54.0924,78.89,4.61
491,Kalmunai,100,LK,1659473245,79,7.4167,81.8167,77.81,9.93
492,La Ronge,100,CA,1659472955,88,55.1001,-105.2842,59.25,16.11
493,Beloha,0,MG,1659473246,68,-25.1667,45.05,62.19,10.6
494,Hobyo,6,SO,1659473246,83,5.3505,48.5268,75.9,26.96
495,Inhambane,38,MZ,1659473247,68,-23.865,35.3833,63.52,5.23
496,Nara,81,JP,1659473247,66,34.6851,135.8049,82.49,3.87
497,Sheopur,100,IN,1659473248,67,25.6667,76.7,86.47,3.87
498,Saint-Raphaël,13,HT,1659473248,65,19.4333,-72.2,82.53,11.92
499,Kamen'-Rybolov,100,RU,1659473248,95,44.7481,132.0403,70.63,5.03
500,Zavyalovo,13,RU,1659473249,79,54.5053,82.4484,54.19,6.96
501,Natchitoches,81,US,1659473249,100,31.7668,-93.1335,73.38,9.22
502,Limbang,100,MY,1659473249,98,4.75,115.0,77.11,1.95
503,Ilhabela,2,BR,1659473250,88,-23.7781,-45.3581,67.64,3.38
504,Mujiayingzi,91,CN,1659473250,79,42.1167,118.7833,71.87,6.78
505,Aasiaat,98,GL,1659473250,94,68.7098,-52.8699,39.69,4.12
506,Shahr-e Bābak,7,IR,1659473251,30,30.1165,55.1186,76.64,13.22
507,Aktash,84,RU,1659473251,87,50.3,87.7333,43.66,1.7
508,Sakaiminato,75,JP,1659473251,94,35.55,133.2333,78.78,6.91
509,Acobamba,52,PE,1659473252,67,-11.3525,-75.6594,60.19,9.69
510,Gimli,37,CA,1659473252,57,50.6336,-96.9907,79.36,18.32
511,Okhotsk,95,RU,1659473252,86,59.3833,143.3,57.92,3.02
512,Nalbari,100,IN,1659473253,94,26.4456,91.4354,78.78,1.34
513,Namatanai,30,PG,1659473253,76,-3.6667,152.4333,79.75,8.93
514,Budogoshch',12,RU,1659473253,96,59.2816,32.4707,56.77,3.04
515,Herat Province,0,AF,1659473254,34,34.5,62.0,74.88,20.4
516,Itoigawa,95,JP,1659473254,78,37.0333,137.85,77.02,6.53
517,Tete,75,MZ,1659473255,100,-16.1564,33.5867,66.29,0.0
518,Xining,58,CN,1659473255,75,36.6167,101.7667,63.36,1.32
519,Chokwé,65,MZ,1659473255,67,-24.5333,32.9833,62.85,5.41
520,Dvinskoy,100,RU,1659473256,82,62.1535,45.1175,59.4,4.65
521,Lagos,96,NG,1659473256,83,6.5833,3.75,77.32,6.24
522,Soure,31,BR,1659473256,80,-0.7167,-48.5233,80.74,13.04
523,Wellington,75,NZ,1659473257,91,-41.2866,174.7756,56.86,15.99
524,Madang,100,PG,1659473257,90,-5.2246,145.7966,76.98,3.0
525,North Myrtle Beach,40,US,1659472965,76,33.816,-78.68,97.34,12.66
526,Oktyabr'skiy,2,RU,1659473257,96,54.4815,53.471,59.2,5.59
527,Kisaran,100,ID,1659473258,99,2.9845,99.6158,73.26,2.46
528,Belaya Gora,100,RU,1659473258,88,68.5333,146.4167,51.93,8.21
529,Luanda,37,AO,1659473155,77,-8.8368,13.2343,68.0,10.36
530,Pachperwa,100,IN,1659473259,91,27.5167,82.65,78.21,3.44
531,Crawfordsville,0,US,1659473259,44,40.0411,-86.8745,81.72,4.61
532,Safaga,11,EG,1659473259,35,26.7292,33.9365,90.18,10.09
533,Sola,7,VU,1659473260,77,-13.8833,167.55,81.3,15.05
534,Gillette,75,US,1659473048,27,44.2911,-105.5022,85.03,18.41
535,Hirara,4,JP,1659473260,76,24.8,125.2833,83.93,12.66
536,Plácido de Castro,42,BR,1659473260,26,-10.3353,-67.1856,96.94,3.04
537,Saint-Pierre,0,RE,1659473261,74,-21.3393,55.4781,65.91,6.91
538,Yarmouth,0,US,1659473261,76,41.7057,-70.2286,88.27,18.41
539,Alaca,0,TR,1659473261,90,40.1683,34.8425,64.02,6.13
540,Dragør,100,DK,1659473262,83,55.5946,12.6664,65.01,5.75
541,Mananara,12,MG,1659473262,92,-16.1667,49.7667,64.9,5.95
542,Macklin,87,CA,1659473263,76,52.3334,-109.9348,66.54,20.0
543,Byron Bay,92,AU,1659473263,83,-28.65,153.6167,51.94,2.53
544,Andenes,40,NO,1659473263,87,69.3143,16.1194,50.94,3.44
545,Vallenar,0,CL,1659473062,52,-28.5708,-70.7581,63.19,7.07
546,Goundam,92,ML,1659473264,44,16.4145,-3.6708,90.39,9.93
547,Sumbe,98,AO,1659473264,82,-11.2061,13.8437,65.73,5.7
548,Yaan,95,NG,1659473264,93,7.3833,8.5667,71.92,3.4
549,Yar-Sale,11,RU,1659473265,65,66.8333,70.8333,55.92,7.16
550,Baihar,100,IN,1659473266,92,22.1,80.55,74.23,1.41
551,Leningradskiy,100,RU,1659473266,53,69.3833,178.4167,57.04,7.0
552,Giohar,1,SO,1659473267,79,2.7809,45.5005,73.8,15.64
553,Dzerzhinsk,20,RU,1659473267,100,56.2389,43.4631,58.82,0.0
554,Edd,39,ER,1659473267,60,13.9297,41.6925,88.29,6.38
555,Talnakh,0,RU,1659473159,80,69.4865,88.3972,45.21,3.31
